{ "station":[{"id": 1, "name": "金时代文化广场", "lat": 29.98416, "lng": 120.58134, "capacity": 24, "availBike": 19,"address": "金时代对面"} ,{"id": 2, "name": "塔山文化广场", "lat": 29.99119, "lng": 120.580326, "capacity": 21, "availBike": 17,"address": "公交站旁"} ,{"id": 3, "name": "解放路鲁迅路口", "lat": 29.993253, "lng": 120.580841, "capacity": 23, "availBike": 10,"address": "鲁迅文化广场南面"} ,{"id": 4, "name": "东街绿化广场", "lat": 29.998838, "lng": 120.58112, "capacity": 23, "availBike": 4,"address": "公交站旁"} ,{"id": 5, "name": "城市广场东", "lat": 30.002368, "lng": 120.581179, "capacity": 22, "availBike": 10,"address": "解放路劳动路口对面（两通道之间）"} ,{"id": 6, "name": "火车站广场", "lat": 30.013768, "lng": 120.580627, "capacity": 21, "availBike": 12,"address": "车站出口处西侧"} ,{"id": 7, "name": "中兴路延安路口", "lat": 29.989174, "lng": 120.587246, "capacity": 21, "availBike": 12,"address": "工贸国贸大厦前"} ,{"id": 8, "name": "鲁迅故里", "lat": 29.99198, "lng": 120.586753, "capacity": 21, "availBike": 11,"address": "中兴路东侧工商银行对面"} ,{"id": 9, "name": "亚都大酒店", "lat": 29.996087, "lng": 120.587, "capacity": 31, "availBike": 12,"address": "亚都大酒店东"} ,{"id": 10, "name": "华汇大厦", "lat": 30.017791, "lng": 120.594869, "capacity": 21, "availBike": 11,"address": "华汇广场公交站后小广场"} ,{"id": 11, "name": "人民医院", "lat": 30.021279, "lng": 120.596339, "capacity": 31, "availBike": 14,"address": "中兴路人民医院门口"} ,{"id": 12, "name": "客运中心", "lat": 30.024414, "lng": 120.5993, "capacity": 20, "availBike": 11,"address": "候车大厅门口西侧"} ,{"id": 13, "name": "越王城", "lat": 29.996143, "lng": 120.572044, "capacity": 21, "availBike": 17,"address": "偏门直街情缘龙山对面"} ,{"id": 14, "name": "绍兴剧院", "lat": 29.996468, "lng": 120.582129, "capacity": 30, "availBike": 15,"address": "绍兴剧院斜对面"} ,{"id": 15, "name": "儿童公园", "lat": 29.995646, "lng": 120.590073, "capacity": 21, "availBike": 12,"address": "公园门口东侧人行道上"} ,{"id": 16, "name": "中医院", "lat": 29.995646, "lng": 120.594193, "capacity": 31, "availBike": 21,"address": "科技馆门口西侧人行道上"} ,{"id": 17, "name": "城市广场北", "lat": 30.004031, "lng": 120.577741, "capacity": 29, "availBike": 9,"address": "一中初中部对面"} ,{"id": 18, "name": "电力大厦", "lat": 30.004031, "lng": 120.582595, "capacity": 21, "availBike": 13,"address": "电力大厦北侧"} ,{"id": 19, "name": "新华书店", "lat": 30.004066, "lng": 120.587509, "capacity": 21, "availBike": 12,"address": "新华书店大门东侧"} ,{"id": 20, "name": "绍兴人才市场", "lat": 30.004194, "lng": 120.591613, "capacity": 20, "availBike": 10,"address": "绍兴人才市场门口东侧"} ,{"id": 21, "name": "世茂广场", "lat": 30.004222, "lng": 120.594521, "capacity": 31, "availBike": 8,"address": "胜利路江南世家门口西侧"} ,{"id": 22, "name": "绍兴图书馆", "lat": 29.989169, "lng": 120.591838, "capacity": 21, "availBike": 15,"address": "绍兴图书馆大门西侧"} ,{"id": 23, "name": "行政中心", "lat": 30.029421, "lng": 120.578846, "capacity": 21, "availBike": 8,"address": "工业学校门口北侧"} ,{"id": 24, "name": "文理学院东大门", "lat": 29.990675, "lng": 120.575745, "capacity": 21, "availBike": 19,"address": "文理学院东大门对面"} ,{"id": 25, "name": "文理学院南山校区", "lat": 29.980736, "lng": 120.572097, "capacity": 24, "availBike": 14,"address": "南山校区大门东侧"} ,{"id": 26, "name": "罗门公园", "lat": 29.985838, "lng": 120.589312, "capacity": 21, "availBike": 16,"address": "罗门公园门口"} ,{"id": 27, "name": "镜湖管委会", "lat": 30.037627, "lng": 120.588217, "capacity": 21, "availBike": 9,"address": "凤林路镜湖管委会门口"} ,{"id": 28, "name": "镜湖中学", "lat": 30.03373, "lng": 120.579972, "capacity": 21, "availBike": 9,"address": "曲屯路镜湖中学门口南"} ,{"id": 29, "name": "后墅路横湖坊", "lat": 30.028208, "lng": 120.589795, "capacity": 21, "availBike": 12,"address": "后墅路横湖坊北"} ,{"id": 30, "name": "山水名家", "lat": 30.022442, "lng": 120.582038, "capacity": 29, "availBike": 16,"address": "解放大道山水名家出口北侧"} ] }