{ "station":[{"id": 1, "name": "起湾居委会", "lat": 22.529894, "lng": 113.399972, "capacity": 18, "availBike": 17,"address": ""} ,{"id": 2, "name": "香格里拉酒店", "lat": 22.527215, "lng": 113.399642, "capacity": 24, "availBike": 19,"address": ""} ,{"id": 3, "name": "水云轩", "lat": 22.523862, "lng": 113.398697, "capacity": 24, "availBike": 2,"address": ""} ,{"id": 4, "name": "竹苑小学", "lat": 22.519098, "lng": 113.399162, "capacity": 20, "availBike": 6,"address": ""} ,{"id": 5, "name": "盛景园北", "lat": 22.515434, "lng": 113.400714, "capacity": 20, "availBike": 10,"address": ""} ,{"id": 6, "name": "盛景园南", "lat": 22.51214, "lng": 113.401758, "capacity": 20, "availBike": 2,"address": ""} ,{"id": 7, "name": "紫马岭公园西门", "lat": 22.508473, "lng": 113.403024, "capacity": 30, "availBike": 7,"address": ""} ,{"id": 8, "name": "新村市场", "lat": 22.505222, "lng": 113.403654, "capacity": 22, "availBike": 21,"address": ""} ,{"id": 9, "name": "全球通公园东", "lat": 22.503155, "lng": 113.403984, "capacity": 30, "availBike": 8,"address": ""} ,{"id": 11, "name": "竹苑壹加壹", "lat": 22.5161, "lng": 113.399131, "capacity": 40, "availBike": 21,"address": ""} ,{"id": 12, "name": "裕中大厦", "lat": 22.512517, "lng": 113.398089, "capacity": 22, "availBike": 0,"address": ""} ,{"id": 13, "name": "盛景酒店", "lat": 22.509218, "lng": 113.401681, "capacity": 22, "availBike": 10,"address": ""} ,{"id": 14, "name": "全球通公园西", "lat": 22.502151, "lng": 113.401372, "capacity": 20, "availBike": 8,"address": ""} ,{"id": 15, "name": "朗晴轩", "lat": 22.501892, "lng": 113.402637, "capacity": 24, "availBike": 15,"address": ""} ,{"id": 16, "name": "市一中", "lat": 22.499065, "lng": 113.404545, "capacity": 20, "availBike": 20,"address": ""} ,{"id": 17, "name": "一中南", "lat": 22.491827, "lng": 113.401525, "capacity": 20, "availBike": 5,"address": ""} ,{"id": 18, "name": "永怡花园", "lat": 22.530141, "lng": 113.398031, "capacity": 28, "availBike": 11,"address": ""} ,{"id": 19, "name": "永怡花园市场", "lat": 22.524796, "lng": 113.396472, "capacity": 20, "availBike": 11,"address": ""} ,{"id": 21, "name": "东苑路北", "lat": 22.519051, "lng": 113.396515, "capacity": 20, "availBike": 16,"address": ""} ,{"id": 22, "name": "东苑路中", "lat": 22.517165, "lng": 113.396327, "capacity": 20, "availBike": 13,"address": ""} ,{"id": 23, "name": "竹苑路口", "lat": 22.5161, "lng": 113.397062, "capacity": 20, "availBike": 9,"address": ""} ,{"id": 24, "name": "东苑路南", "lat": 22.51382, "lng": 113.396557, "capacity": 18, "availBike": 8,"address": ""} ,{"id": 25, "name": "顺景花园", "lat": 22.51228, "lng": 113.396301, "capacity": 20, "availBike": 10,"address": ""} ,{"id": 26, "name": "城市客栈", "lat": 22.508805, "lng": 113.3972, "capacity": 24, "availBike": 23,"address": ""} ,{"id": 28, "name": "大东裕大厦", "lat": 22.502212, "lng": 113.398443, "capacity": 40, "availBike": 18,"address": ""} ,{"id": 29, "name": "交警支队", "lat": 22.498801, "lng": 113.397831, "capacity": 30, "availBike": 6,"address": ""} ,{"id": 30, "name": "军分区", "lat": 22.494807, "lng": 113.396654, "capacity": 20, "availBike": 4,"address": ""} ,{"id": 32, "name": "市人大", "lat": 22.522963, "lng": 113.390396, "capacity": 20, "availBike": 7,"address": ""} ,{"id": 33, "name": "假日广场1", "lat": 22.521833, "lng": 113.3905, "capacity": 30, "availBike": 27,"address": ""} ,{"id": 34, "name": "半山翠苑", "lat": 22.520122, "lng": 113.393525, "capacity": 20, "availBike": 15,"address": ""} ,{"id": 35, "name": "兴中园", "lat": 22.517582, "lng": 113.390493, "capacity": 30, "availBike": 7,"address": ""} ,{"id": 36, "name": "市政府西", "lat": 22.5161, "lng": 113.391941, "capacity": 30, "availBike": 8,"address": ""} ,{"id": 37, "name": "市政府东", "lat": 22.5161, "lng": 113.394377, "capacity": 22, "availBike": 0,"address": ""} ,{"id": 38, "name": "中级人民法院", "lat": 22.51448, "lng": 113.39044, "capacity": 30, "availBike": 10,"address": ""} ,{"id": 39, "name": "建设局", "lat": 22.513207, "lng": 113.391047, "capacity": 26, "availBike": 21,"address": ""} ,{"id": 40, "name": "库充北", "lat": 22.51238, "lng": 113.394001, "capacity": 30, "availBike": 5,"address": ""} ,{"id": 41, "name": "地税局", "lat": 22.509841, "lng": 113.390815, "capacity": 30, "availBike": 12,"address": ""} ,{"id": 42, "name": "翡翠花园西门", "lat": 22.509013, "lng": 113.392432, "capacity": 30, "availBike": 10,"address": ""} ,{"id": 44, "name": "置禾超市", "lat": 22.508929, "lng": 113.394709, "capacity": 30, "availBike": 20,"address": ""} ,{"id": 45, "name": "体育场东", "lat": 22.507496, "lng": 113.390139, "capacity": 40, "availBike": 14,"address": ""} ,{"id": 47, "name": "名树园", "lat": 22.504648, "lng": 113.390858, "capacity": 30, "availBike": 26,"address": ""} ,{"id": 48, "name": "体育馆东", "lat": 0, "lng": 0, "capacity": 40, "availBike": 0,"address": ""} ,{"id": 49, "name": "文化艺术中心", "lat": 22.502291, "lng": 113.392387, "capacity": 20, "availBike": 1,"address": ""} ,{"id": 50, "name": "孙文公园", "lat": 22.500192, "lng": 113.390672, "capacity": 22, "availBike": 11,"address": ""} ,{"id": 51, "name": "孙文公园驿站", "lat": 22.499321, "lng": 113.388796, "capacity": 36, "availBike": 13,"address": ""} ,{"id": 52, "name": "博爱医院", "lat": 22.497669, "lng": 113.391266, "capacity": 40, "availBike": 20,"address": ""} ,{"id": 54, "name": "金钟水库驿站1", "lat": 22.485917, "lng": 113.391544, "capacity": 30, "availBike": 28,"address": ""} ,{"id": 55, "name": "金钟水库", "lat": 0, "lng": 0, "capacity": 40, "availBike": 0,"address": ""} ,{"id": 56, "name": "莲兴酒店", "lat": 22.531411, "lng": 113.385557, "capacity": 20, "availBike": 20,"address": ""} ,{"id": 57, "name": "大信新都汇1", "lat": 22.532318, "lng": 113.382961, "capacity": 42, "availBike": 19,"address": ""} ,{"id": 58, "name": "石岐职中", "lat": 22.528355, "lng": 113.380907, "capacity": 20, "availBike": 19,"address": ""} ,{"id": 59, "name": "人民医院", "lat": 22.523458, "lng": 113.383219, "capacity": 42, "availBike": 21,"address": ""} ,{"id": 60, "name": "莲兴路口", "lat": 22.521412, "lng": 113.384153, "capacity": 24, "availBike": 22,"address": ""} ,{"id": 62, "name": "金鹰广场", "lat": 22.520138, "lng": 113.388267, "capacity": 20, "availBike": 1,"address": ""} ,{"id": 63, "name": "华柏路桂园路口", "lat": 22.518612, "lng": 113.382929, "capacity": 16, "availBike": 11,"address": ""} ,{"id": 64, "name": "威力村", "lat": 22.519039, "lng": 113.385515, "capacity": 22, "availBike": 22,"address": ""} ,{"id": 65, "name": "华侨中学初中部", "lat": 22.518372, "lng": 113.381742, "capacity": 20, "availBike": 10,"address": ""} ,{"id": 66, "name": "老干中心", "lat": 22.516779, "lng": 113.382179, "capacity": 24, "availBike": 10,"address": ""} ,{"id": 67, "name": "华苑大街路口", "lat": 22.516576, "lng": 113.385744, "capacity": 32, "availBike": 26,"address": ""} ,{"id": 68, "name": "松苑壹加壹", "lat": 22.51631, "lng": 113.388788, "capacity": 24, "availBike": 15,"address": ""} ,{"id": 69, "name": "建设街", "lat": 22.515471, "lng": 113.383113, "capacity": 20, "availBike": 9,"address": ""} ,{"id": 70, "name": "柏苑新村", "lat": 22.515332, "lng": 113.38639, "capacity": 16, "availBike": 14,"address": ""} ,{"id": 71, "name": "康乐大街南", "lat": 22.514489, "lng": 113.388476, "capacity": 20, "availBike": 10,"address": ""} ,{"id": 72, "name": "石岐沃尔玛", "lat": 22.51342, "lng": 113.380665, "capacity": 24, "availBike": 16,"address": ""} ,{"id": 73, "name": "中银大厦", "lat": 22.512815, "lng": 113.38618, "capacity": 30, "availBike": 4,"address": ""} ,{"id": 74, "name": "岐关西", "lat": 22.512319, "lng": 113.381137, "capacity": 30, "availBike": 1,"address": ""} ,{"id": 75, "name": "益华百货", "lat": 22.510574, "lng": 113.385837, "capacity": 20, "availBike": 5,"address": ""} ,{"id": 76, "name": "恒信花园", "lat": 22.509602, "lng": 113.380429, "capacity": 22, "availBike": 2,"address": ""} ,{"id": 77, "name": "国元证券", "lat": 22.5093, "lng": 113.383066, "capacity": 20, "availBike": 3,"address": ""} ,{"id": 78, "name": "路易酒店", "lat": 22.50853, "lng": 113.385831, "capacity": 38, "availBike": 9,"address": ""} ,{"id": 79, "name": "体育场北", "lat": 22.509121, "lng": 113.388134, "capacity": 30, "availBike": 22,"address": ""} ,{"id": 80, "name": "雍景园东门", "lat": 22.505688, "lng": 113.385923, "capacity": 30, "availBike": 8,"address": ""} ,{"id": 81, "name": "银通街博爱路口", "lat": 22.503855, "lng": 113.385344, "capacity": 20, "availBike": 18,"address": ""} ,{"id": 82, "name": "港航管理局", "lat": 22.501272, "lng": 113.396885, "capacity": 30, "availBike": 0,"address": ""} ,{"id": 83, "name": "沙岗村北", "lat": 22.504112, "lng": 113.379372, "capacity": 16, "availBike": 13,"address": ""} ,{"id": 84, "name": "南下码头", "lat": 22.505163, "lng": 113.37882, "capacity": 18, "availBike": 16,"address": ""} ,{"id": 85, "name": "中山电大", "lat": 22.523439, "lng": 113.379357, "capacity": 20, "availBike": 20,"address": ""} ,{"id": 86, "name": "中山纪念堂", "lat": 22.521457, "lng": 113.376696, "capacity": 30, "availBike": 29,"address": ""} ,{"id": 88, "name": "民生路天桥", "lat": 22.513944, "lng": 113.376438, "capacity": 30, "availBike": 29,"address": ""} ,{"id": 91, "name": "民权路中", "lat": 22.516144, "lng": 113.372833, "capacity": 22, "availBike": 12,"address": ""} ,{"id": 92, "name": "亭子下大街天桥", "lat": 22.513567, "lng": 113.37263, "capacity": 20, "availBike": 19,"address": ""} ,{"id": 93, "name": "中山公园", "lat": 22.525908, "lng": 113.373033, "capacity": 30, "availBike": 28,"address": ""} ,{"id": 95, "name": "悦来路逢源路口", "lat": 22.519246, "lng": 113.370763, "capacity": 30, "availBike": 12,"address": ""} ,{"id": 96, "name": "悦来路民权路口", "lat": 22.516323, "lng": 113.369529, "capacity": 30, "availBike": 21,"address": ""} ,{"id": 97, "name": "交通局", "lat": 22.511125, "lng": 113.368613, "capacity": 40, "availBike": 28,"address": ""} ,{"id": 100, "name": "永胜数码广场", "lat": 22.517036, "lng": 113.366503, "capacity": 20, "availBike": 20,"address": ""} ,{"id": 101, "name": "海悦酒店", "lat": 0, "lng": 0, "capacity": 20, "availBike": 0,"address": ""} ,{"id": 102, "name": "光明桥", "lat": 22.523419, "lng": 113.365302, "capacity": 20, "availBike": 4,"address": ""} ,{"id": 103, "name": "富华酒店", "lat": 22.521873, "lng": 113.365033, "capacity": 40, "availBike": 4,"address": ""} ,{"id": 104, "name": "喜来登酒店", "lat": 22.520366, "lng": 113.365259, "capacity": 30, "availBike": 0,"address": ""} ,{"id": 106, "name": "沙岗墟", "lat": 22.533911, "lng": 113.40017, "capacity": 40, "availBike": 28,"address": ""} ,{"id": 107, "name": "宏基社区居委会", "lat": 22.532853, "lng": 113.397059, "capacity": 24, "availBike": 10,"address": ""} ,{"id": 108, "name": "岐乐花园", "lat": 22.534597, "lng": 113.395958, "capacity": 30, "availBike": 7,"address": ""} ,{"id": 109, "name": "侨中高中部", "lat": 22.545901, "lng": 113.393644, "capacity": 40, "availBike": 14,"address": ""} ,{"id": 110, "name": "东盛花园", "lat": 22.544626, "lng": 113.388913, "capacity": 20, "availBike": 17,"address": ""} ,{"id": 111, "name": "东明花园", "lat": 22.541021, "lng": 113.388205, "capacity": 20, "availBike": 18,"address": ""} ,{"id": 112, "name": "阳光花地", "lat": 0, "lng": 0, "capacity": 20, "availBike": 0,"address": ""} ,{"id": 113, "name": "名雅豪庭", "lat": 22.538938, "lng": 113.391448, "capacity": 30, "availBike": 17,"address": ""} ,{"id": 114, "name": "石岐区办事处", "lat": 0, "lng": 0, "capacity": 20, "availBike": 0,"address": ""} ,{"id": 115, "name": "恒基花园4期", "lat": 22.537305, "lng": 113.390278, "capacity": 20, "availBike": 6,"address": ""} ,{"id": 116, "name": "天明豪庭", "lat": 22.542954, "lng": 113.393339, "capacity": 30, "availBike": 18,"address": ""} ,{"id": 117, "name": "石岐购书中心", "lat": 22.535929, "lng": 113.384764, "capacity": 24, "availBike": 23,"address": ""} ,{"id": 118, "name": "北区公园", "lat": 22.535471, "lng": 113.389334, "capacity": 40, "availBike": 25,"address": ""} ,{"id": 119, "name": "富逸装饰广场", "lat": 0, "lng": 0, "capacity": 30, "availBike": 0,"address": ""} ,{"id": 120, "name": "莲员路中", "lat": 0, "lng": 0, "capacity": 20, "availBike": 0,"address": ""} ,{"id": 121, "name": "苏华赞医院", "lat": 22.531862, "lng": 113.37779, "capacity": 18, "availBike": 14,"address": ""} ,{"id": 122, "name": "电机厂", "lat": 22.527026, "lng": 113.366718, "capacity": 20, "availBike": 18,"address": ""} ,{"id": 123, "name": "逸仙湖公园", "lat": 22.527621, "lng": 113.374142, "capacity": 30, "availBike": 29,"address": ""} ,{"id": 125, "name": "第一城", "lat": 0, "lng": 0, "capacity": 24, "availBike": 0,"address": ""} ,{"id": 127, "name": "老中医院", "lat": 0, "lng": 0, "capacity": 20, "availBike": 0,"address": ""} ,{"id": 128, "name": "悦来南路博爱路口", "lat": 0, "lng": 0, "capacity": 20, "availBike": 0,"address": ""} ,{"id": 130, "name": "比华利山庄", "lat": 22.525877, "lng": 113.405599, "capacity": 24, "availBike": 18,"address": ""} ,{"id": 131, "name": "华鸿公寓", "lat": 0, "lng": 0, "capacity": 30, "availBike": 3,"address": ""} ,{"id": 132, "name": "紫茵庭园", "lat": 22.520485, "lng": 113.403668, "capacity": 20, "availBike": 20,"address": ""} ,{"id": 133, "name": "东区防护所", "lat": 22.517731, "lng": 113.405312, "capacity": 24, "availBike": 12,"address": ""} ,{"id": 134, "name": "奕翠园", "lat": 22.519479, "lng": 113.409676, "capacity": 30, "availBike": 7,"address": ""} ,{"id": 135, "name": "齐东", "lat": 0, "lng": 0, "capacity": 30, "availBike": 0,"address": ""} ,{"id": 136, "name": "紫马岭公园", "lat": 22.512982, "lng": 113.40637, "capacity": 40, "availBike": 27,"address": ""} ,{"id": 137, "name": "万家广场", "lat": 22.515235, "lng": 113.411908, "capacity": 40, "availBike": 4,"address": ""} ,{"id": 138, "name": "东区办事处", "lat": 22.515768, "lng": 113.415985, "capacity": 24, "availBike": 6,"address": ""} ,{"id": 140, "name": "帝璟东方", "lat": 22.498839, "lng": 113.408496, "capacity": 30, "availBike": 15,"address": ""} ,{"id": 141, "name": "博览中心", "lat": 22.502922, "lng": 113.414568, "capacity": 20, "availBike": 0,"address": ""} ,{"id": 142, "name": "博览中心南门", "lat": 22.500421, "lng": 113.415927, "capacity": 20, "availBike": 10,"address": ""} ,{"id": 143, "name": "小鳌溪驿站", "lat": 22.506406, "lng": 113.423286, "capacity": 30, "availBike": 3,"address": ""} ,{"id": 144, "name": "三溪村北", "lat": 22.501025, "lng": 113.421793, "capacity": 20, "availBike": 3,"address": ""} ,{"id": 145, "name": "三溪村西", "lat": 22.498344, "lng": 113.42039, "capacity": 20, "availBike": 2,"address": ""} ,{"id": 146, "name": "吉之岛", "lat": 22.512692, "lng": 113.368241, "capacity": 30, "availBike": 10,"address": ""} ,{"id": 147, "name": "石岐中学", "lat": 0, "lng": 0, "capacity": 30, "availBike": 0,"address": ""} ,{"id": 148, "name": "蓝波湾小区", "lat": 22.508031, "lng": 113.35391, "capacity": 30, "availBike": 23,"address": ""} ,{"id": 149, "name": "西区货运场", "lat": 22.510991, "lng": 113.353564, "capacity": 20, "availBike": 15,"address": ""} ,{"id": 150, "name": "愉翠雅园", "lat": 22.516144, "lng": 113.352835, "capacity": 20, "availBike": 19,"address": ""} ,{"id": 151, "name": "西区政府", "lat": 22.519435, "lng": 113.357019, "capacity": 30, "availBike": 23,"address": ""} ,{"id": 153, "name": "西区邮局", "lat": 22.520485, "lng": 113.349745, "capacity": 24, "availBike": 7,"address": ""} ,{"id": 154, "name": "汽车总站", "lat": 22.521065, "lng": 113.343742, "capacity": 30, "availBike": 26,"address": ""} ,{"id": 155, "name": "西区供电公司", "lat": 22.520897, "lng": 113.355249, "capacity": 30, "availBike": 13,"address": ""} ,{"id": 156, "name": "长洲牌坊", "lat": 22.521338, "lng": 113.358706, "capacity": 18, "availBike": 2,"address": ""} ,{"id": 157, "name": "西区电脑城", "lat": 22.521793, "lng": 113.36013, "capacity": 30, "availBike": 9,"address": ""} ,{"id": 159, "name": "中山一桥北", "lat": 22.517215, "lng": 113.361418, "capacity": 20, "availBike": 9,"address": ""} ,{"id": 160, "name": "中山一桥下", "lat": 22.51438, "lng": 113.361783, "capacity": 20, "availBike": 17,"address": ""} ,{"id": 162, "name": "金钻酒店", "lat": 22.540545, "lng": 113.381481, "capacity": 20, "availBike": 9,"address": ""} ,{"id": 163, "name": "德兴火锅", "lat": 22.546216, "lng": 113.378562, "capacity": 20, "availBike": 8,"address": ""} ,{"id": 165, "name": "东明大桥西", "lat": 22.552042, "lng": 113.39105, "capacity": 20, "availBike": 8,"address": ""} ,{"id": 166, "name": "民科东路口", "lat": 22.55673, "lng": 113.390786, "capacity": 20, "availBike": 8,"address": ""} ,{"id": 167, "name": "大信海岸家园", "lat": 0, "lng": 0, "capacity": 20, "availBike": 0,"address": ""} ,{"id": 168, "name": "中山北站", "lat": 22.557843, "lng": 113.383154, "capacity": 40, "availBike": 14,"address": ""} ,{"id": 169, "name": "湖滨路北", "lat": 22.536463, "lng": 113.379629, "capacity": 20, "availBike": 16,"address": ""} ,{"id": 172, "name": "沙岗墟北", "lat": 22.535063, "lng": 113.403255, "capacity": 30, "availBike": 26,"address": ""} ,{"id": 173, "name": "东区社保分局", "lat": 22.534548, "lng": 113.408882, "capacity": 20, "availBike": 7,"address": ""} ,{"id": 174, "name": "白沙湾", "lat": 22.535905, "lng": 113.409837, "capacity": 20, "availBike": 11,"address": ""} ,{"id": 177, "name": "起湾沙路路口", "lat": 22.548331, "lng": 113.410706, "capacity": 20, "availBike": 15,"address": ""} ,{"id": 178, "name": "长江北大桥", "lat": 22.557645, "lng": 113.412272, "capacity": 20, "availBike": 6,"address": ""} ,{"id": 179, "name": "白沙湾驿站", "lat": 22.561375, "lng": 113.410951, "capacity": 30, "availBike": 12,"address": ""} ,{"id": 180, "name": "东祥路口", "lat": 22.545398, "lng": 113.409225, "capacity": 20, "availBike": 16,"address": ""} ,{"id": 181, "name": "白水井大街西", "lat": 22.516263, "lng": 113.376964, "capacity": 18, "availBike": 18,"address": ""} ,{"id": 182, "name": "华力路壹加壹", "lat": 22.514995, "lng": 113.375236, "capacity": 24, "availBike": 16,"address": ""} ,{"id": 183, "name": "金都城", "lat": 22.521001, "lng": 113.371567, "capacity": 30, "availBike": 25,"address": ""} ,{"id": 186, "name": "长洲公园", "lat": 22.524345, "lng": 113.357148, "capacity": 30, "availBike": 21,"address": ""} ,{"id": 187, "name": "翠景湾", "lat": 22.526749, "lng": 113.347749, "capacity": 30, "availBike": 28,"address": ""} ,{"id": 188, "name": "翠景文化中心", "lat": 22.523746, "lng": 113.348876, "capacity": 30, "availBike": 18,"address": ""} ,{"id": 189, "name": "西区公安分局", "lat": 22.520999, "lng": 113.347567, "capacity": 24, "availBike": 3,"address": ""} ,{"id": 190, "name": "延龄路", "lat": 22.52663, "lng": 113.376846, "capacity": 21, "availBike": 17,"address": ""} ,{"id": 191, "name": "槎南路东", "lat": 22.50094, "lng": 113.383455, "capacity": 20, "availBike": 17,"address": ""} ,{"id": 192, "name": "朗晴假日东", "lat": 22.499983, "lng": 113.380703, "capacity": 20, "availBike": 6,"address": ""} ,{"id": 194, "name": "朗晴假日北", "lat": 22.502929, "lng": 113.376528, "capacity": 30, "availBike": 12,"address": ""} ,{"id": 196, "name": "悦来南路南", "lat": 22.502645, "lng": 113.368864, "capacity": 20, "availBike": 20,"address": ""} ,{"id": 199, "name": "银星花园", "lat": 22.499354, "lng": 113.363456, "capacity": 20, "availBike": 14,"address": ""} ,{"id": 200, "name": "交通执法局", "lat": 22.497689, "lng": 113.365302, "capacity": 20, "availBike": 13,"address": ""} ,{"id": 201, "name": "201#测试车站", "lat": 0, "lng": 0, "capacity": 28, "availBike": 0,"address": ""} ,{"id": 203, "name": "恒海花园", "lat": 22.50033, "lng": 113.359342, "capacity": 20, "availBike": 19,"address": ""} ,{"id": 204, "name": "碧堤湾畔", "lat": 22.499438, "lng": 113.356627, "capacity": 20, "availBike": 13,"address": ""} ,{"id": 206, "name": "公路局养征所", "lat": 22.489755, "lng": 113.356606, "capacity": 22, "availBike": 9,"address": ""} ,{"id": 207, "name": "南区文化中心", "lat": 22.486482, "lng": 113.358113, "capacity": 30, "availBike": 23,"address": ""} ,{"id": 210, "name": "南区市场", "lat": 22.48501, "lng": 113.353334, "capacity": 24, "availBike": 11,"address": ""} ,{"id": 216, "name": "城南客运站", "lat": 22.46896, "lng": 113.348683, "capacity": 28, "availBike": 21,"address": ""} ,{"id": 246, "name": "金柏酒店", "lat": 22.516917, "lng": 113.357813, "capacity": 30, "availBike": 10,"address": ""} ,{"id": 247, "name": "凯茵豪园正门", "lat": 22.494874, "lng": 113.447463, "capacity": 18, "availBike": 15,"address": ""} ,{"id": 248, "name": "凯茵新城碧云天", "lat": 22.501059, "lng": 113.45566, "capacity": 18, "availBike": 17,"address": ""} ,{"id": 249, "name": "凯茵新城销售部", "lat": 22.501574, "lng": 113.46081, "capacity": 18, "availBike": 4,"address": ""} ,{"id": 250, "name": "凯茵公交车总站", "lat": 22.506174, "lng": 113.465294, "capacity": 30, "availBike": 14,"address": ""} ,{"id": 251, "name": "凯茵新城雅湖居", "lat": 22.50879, "lng": 113.462119, "capacity": 20, "availBike": 7,"address": ""} ,{"id": 252, "name": "凯茵新城雅豪坊", "lat": 22.507125, "lng": 113.457055, "capacity": 16, "availBike": 1,"address": ""} ,{"id": 253, "name": "眼科医院", "lat": 22.527859, "lng": 113.362288, "capacity": 20, "availBike": 6,"address": ""} ,{"id": 254, "name": "狮滘口桥", "lat": 22.530078, "lng": 113.361353, "capacity": 18, "availBike": 12,"address": ""} ,{"id": 256, "name": "新中医院东", "lat": 22.53868, "lng": 113.354916, "capacity": 20, "availBike": 16,"address": ""} ,{"id": 257, "name": "西区中心小学", "lat": 22.534637, "lng": 113.349595, "capacity": 20, "availBike": 8,"address": ""} ,{"id": 269, "name": "蔷薇山庄", "lat": 22.525678, "lng": 113.412337, "capacity": 20, "availBike": 15,"address": ""} ,{"id": 273, "name": "检验检疫局", "lat": 22.517753, "lng": 113.421794, "capacity": 20, "availBike": 8,"address": ""} ,{"id": 328, "name": "长江北联通", "lat": 22.521437, "lng": 113.417487, "capacity": 20, "availBike": 7,"address": ""} ,{"id": 330, "name": "大鳌溪新村", "lat": 22.509583, "lng": 113.425555, "capacity": 20, "availBike": 11,"address": ""} ,{"id": 331, "name": "蓝波湾小学", "lat": 22.51217, "lng": 113.356912, "capacity": 20, "availBike": 17,"address": ""} ,{"id": 332, "name": "世纪新城销售部", "lat": 22.505668, "lng": 113.35232, "capacity": 30, "availBike": 6,"address": ""} ,{"id": 333, "name": "世纪新城", "lat": 22.501584, "lng": 113.351638, "capacity": 20, "availBike": 14,"address": ""} ,{"id": 933, "name": "假日广场2", "lat": 22.520525, "lng": 113.390471, "capacity": 30, "availBike": 18,"address": ""} ,{"id": 934, "name": "934#车站(test)", "lat": 0, "lng": 0, "capacity": 20, "availBike": 0,"address": ""} ,{"id": 954, "name": "金钟水库驿站2", "lat": 22.484787, "lng": 113.390988, "capacity": 30, "availBike": 29,"address": ""} ,{"id": 955, "name": "金钟水库驿站3", "lat": 22.483717, "lng": 113.390352, "capacity": 31, "availBike": 9,"address": ""} ,{"id": 957, "name": "大信新都汇2", "lat": 22.533012, "lng": 113.383455, "capacity": 38, "availBike": 33,"address": ""} ,{"id": 997, "name": "997#演示车站", "lat": 0, "lng": 0, "capacity": 2, "availBike": 0,"address": ""} ,{"id": 998, "name": "998测试站", "lat": 0, "lng": 0, "capacity": 35, "availBike": 0,"address": ""} ,{"id": 999, "name": "999#车站", "lat": 0, "lng": 0, "capacity": 20, "availBike": 0,"address": "本站为监控中心调试专用车站，请勿删除！"} ,{"id": 1000, "name": "顺德演示车站", "lat": 22.832516, "lng": 0, "capacity": 11, "availBike": 0,"address": ""} ] }