{ "station":[{"id": 1, "name": "吴模家园", "lat": 31.146768, "lng": 120.634587, "capacity": 18, "availBike": 8,"address": "吴模路吴模家园"} ,{"id": 2, "name": "青少年活动中心", "lat": 31.143618, "lng": 120.641872, "capacity": 20, "availBike": 7,"address": "体育路青少年活动中心"} ,{"id": 3, "name": "市政府西门", "lat": 31.142525, "lng": 120.643584, "capacity": 40, "availBike": 20,"address": "中山南路市政府西门"} ,{"id": 4, "name": "行政审批中心", "lat": 31.13775, "lng": 120.646749, "capacity": 20, "availBike": 12,"address": "人民路行政审批中心"} ,{"id": 5, "name": "体育场", "lat": 31.124324, "lng": 120.643798, "capacity": 20, "availBike": 9,"address": "中山南路体育场"} ,{"id": 6, "name": "联杨菜场", "lat": 31.127694, "lng": 120.634904, "capacity": 20, "availBike": 9,"address": "环湖路联杨菜场"} ,{"id": 7, "name": "检察院", "lat": 31.141093, "lng": 120.645182, "capacity": 20, "availBike": 10,"address": "检察院门口"} ,{"id": 8, "name": "流虹西路", "lat": 31.16155, "lng": 120.629711, "capacity": 20, "availBike": 7,"address": "流虹西路"} ,{"id": 9, "name": "高新花园", "lat": 31.143994, "lng": 120.649377, "capacity": 20, "availBike": 8,"address": "体育路高新花园"} ,{"id": 10, "name": "永鼎医院", "lat": 31.141947, "lng": 120.634239, "capacity": 20, "availBike": 8,"address": "高新路永鼎医院"} ,{"id": 11, "name": "实验小学北门", "lat": 31.14202, "lng": 120.628145, "capacity": 20, "availBike": 11,"address": "高新路实验小学北门"} ,{"id": 12, "name": "振泰小区南门", "lat": 31.148411, "lng": 120.632071, "capacity": 14, "availBike": 3,"address": "江库路振泰小区南门"} ,{"id": 13, "name": "苏州河路（双人）", "lat": 31.149146, "lng": 120.620195, "capacity": 20, "availBike": 15,"address": "苏州河路江库路路口"} ,{"id": 14, "name": "振泰小区北门", "lat": 31.152892, "lng": 120.631911, "capacity": 18, "availBike": 9,"address": "笠泽路振泰小区北门"} ,{"id": 15, "name": "吴江公园", "lat": 31.153314, "lng": 120.637243, "capacity": 16, "availBike": 7,"address": "笠泽路吴江公园"} ,{"id": 16, "name": "人才市场", "lat": 31.151551, "lng": 120.643825, "capacity": 18, "availBike": 13,"address": "笠泽路人才市场"} ,{"id": 17, "name": "大润发", "lat": 31.149591, "lng": 120.647768, "capacity": 18, "availBike": 9,"address": "笠泽路大润发"} ,{"id": 18, "name": "体育馆", "lat": 31.148829, "lng": 120.649871, "capacity": 18, "availBike": 7,"address": "笠泽路体育馆"} ,{"id": 19, "name": "鲈乡南路笠泽路", "lat": 31.152304, "lng": 120.6397, "capacity": 20, "availBike": 7,"address": "鲈乡南路笠泽路路口"} ,{"id": 20, "name": "吴江宾馆", "lat": 31.154141, "lng": 120.639088, "capacity": 20, "availBike": 2,"address": "鲈乡南路音乐广场东入口"} ,{"id": 21, "name": "乐天玛特超市", "lat": 31.161832, "lng": 120.639319, "capacity": 16, "availBike": 3,"address": "鲈乡北路乐天玛特超市"} ,{"id": 22, "name": "油车路鲈乡路口", "lat": 31.165433, "lng": 120.639796, "capacity": 16, "availBike": 11,"address": "油车路鲈乡路口"} ,{"id": 23, "name": "沃尔玛超市", "lat": 31.168738, "lng": 120.639871, "capacity": 20, "availBike": 6,"address": "鲈乡北路沃尔玛超市"} ,{"id": 24, "name": "丽湾国际东门", "lat": 31.175063, "lng": 120.631728, "capacity": 20, "availBike": 15,"address": "仲英大道丽湾国际东门"} ,{"id": 25, "name": "鲈乡园西门", "lat": 31.14831, "lng": 120.639426, "capacity": 16, "availBike": 0,"address": "江库路鲈乡南路路口"} ,{"id": 26, "name": "香江花园", "lat": 31.163423, "lng": 120.650053, "capacity": 20, "availBike": 7,"address": "交通路"} ,{"id": 27, "name": "奥林清华公交站", "lat": 31.139206, "lng": 120.637811, "capacity": 24, "availBike": 0,"address": "鲈乡南路奥林清华公交站"} ,{"id": 28, "name": "嘉鸿花园西门", "lat": 31.169656, "lng": 120.648315, "capacity": 20, "availBike": 16,"address": "中山北路嘉鸿花园西门"} ,{"id": 29, "name": "老年活动中心", "lat": 31.155059, "lng": 120.643165, "capacity": 20, "availBike": 5,"address": "中山南路老年活动中心"} ,{"id": 30, "name": "江苏银行", "lat": 31.16345, "lng": 120.645708, "capacity": 18, "availBike": 13,"address": "中山北路小园弄路口"} ,{"id": 31, "name": "汽车站", "lat": 31.13612, "lng": 120.665127, "capacity": 20, "availBike": 4,"address": "吴江汽车站"} ,{"id": 32, "name": "阳光新天地西门", "lat": 31.134017, "lng": 120.651818, "capacity": 20, "availBike": 9,"address": "花园路阳光新天地西门"} ,{"id": 33, "name": "水乡花园", "lat": 31.150156, "lng": 120.639002, "capacity": 24, "availBike": 0,"address": "鲈乡南路水乡花园"} ,{"id": 34, "name": "图书馆", "lat": 31.150716, "lng": 120.642049, "capacity": 18, "availBike": 13,"address": "中山南路图书馆"} ,{"id": 35, "name": "吴江公园（内）", "lat": 31.155481, "lng": 120.632586, "capacity": 20, "availBike": 11,"address": "仲英大道吴江公园（内）"} ,{"id": 36, "name": "梅石路松港路口", "lat": 31.154714, "lng": 120.627544, "capacity": 18, "availBike": 7,"address": "梅石路松港路口"} ,{"id": 37, "name": "邻居中心", "lat": 31.158773, "lng": 120.627168, "capacity": 16, "availBike": 10,"address": "双板桥路梅石路路口"} ,{"id": 38, "name": "总工会职业学校", "lat": 31.158965, "lng": 120.634636, "capacity": 20, "availBike": 12,"address": "双板桥路总工会职业学校"} ,{"id": 39, "name": "流虹苑", "lat": 31.159273, "lng": 120.632147, "capacity": 12, "availBike": 0,"address": "仲英大道双板桥路路口"} ,{"id": 40, "name": "三角井", "lat": 31.159475, "lng": 120.643616, "capacity": 16, "availBike": 12,"address": "中山南路流虹路路口"} ,{"id": 41, "name": "训练中心北门", "lat": 31.160567, "lng": 120.638203, "capacity": 20, "availBike": 9,"address": "流虹路体育局门口"} ,{"id": 42, "name": "松陵卫生院", "lat": 31.161219, "lng": 120.634153, "capacity": 20, "availBike": 9,"address": "流虹路松陵卫生院"} ,{"id": 43, "name": "松陵饭店", "lat": 31.161449, "lng": 120.64382, "capacity": 20, "availBike": 16,"address": "中山北路电影院对面"} ,{"id": 44, "name": "山湖饭店", "lat": 31.1648, "lng": 120.647977, "capacity": 14, "availBike": 7,"address": "松陵二中心小学"} ,{"id": 45, "name": "梅石路公安大厦", "lat": 31.165332, "lng": 120.627716, "capacity": 16, "availBike": 9,"address": "梅石路公安大厦"} ,{"id": 46, "name": "欧风华庭东门", "lat": 31.168233, "lng": 120.62705, "capacity": 16, "availBike": 4,"address": "梅石路欧风华庭东门"} ,{"id": 47, "name": "龙庭锦绣南门", "lat": 31.170225, "lng": 120.639968, "capacity": 20, "availBike": 4,"address": "江兴西路龙庭锦绣南门"} ,{"id": 48, "name": "鲈乡三村北门", "lat": 31.169372, "lng": 120.635741, "capacity": 20, "availBike": 5,"address": "江兴西路鲈乡三村北门"} ,{"id": 49, "name": "吴越领秀南门", "lat": 31.169849, "lng": 120.63102, "capacity": 20, "availBike": 6,"address": "江兴西路吴越领秀南门"} ,{"id": 50, "name": "吴越尚苑南门", "lat": 31.170069, "lng": 120.626922, "capacity": 20, "availBike": 11,"address": "江兴西路吴越尚苑南门"} ,{"id": 51, "name": "木中小区", "lat": 31.170693, "lng": 120.647854, "capacity": 20, "availBike": 8,"address": "中山北路江兴西路路口木中小区"} ,{"id": 52, "name": "职业学校", "lat": 31.16636, "lng": 120.63102, "capacity": 20, "availBike": 0,"address": "油车路职业学校"} ,{"id": 53, "name": "新湖明珠城", "lat": 31.177046, "lng": 120.633316, "capacity": 20, "availBike": 11,"address": "江陵西路仲英大道路口"} ,{"id": 54, "name": "大毅科技", "lat": 31.172557, "lng": 120.639324, "capacity": 16, "availBike": 6,"address": "鲈乡北路大毅科技"} ,{"id": 55, "name": "天和人家", "lat": 31.176109, "lng": 120.639989, "capacity": 20, "availBike": 11,"address": "鲈乡北路天和人家"} ,{"id": 56, "name": "吴江高级中学", "lat": 31.173218, "lng": 120.647832, "capacity": 24, "availBike": 12,"address": "中山北路吴江高级中学"} ,{"id": 57, "name": "油车路西塘河路口", "lat": 31.165635, "lng": 120.642124, "capacity": 16, "availBike": 7,"address": "油车路西塘河路口"} ,{"id": 58, "name": "鲈乡三村南门", "lat": 31.16603, "lng": 120.636771, "capacity": 18, "availBike": 7,"address": "油车路鲈乡三村南门"} ,{"id": 59, "name": "鲈乡二村南门", "lat": 31.162688, "lng": 120.635891, "capacity": 14, "availBike": 8,"address": "永康路鲈乡二村南门"} ,{"id": 60, "name": "城中农贸市场", "lat": 31.159668, "lng": 120.639657, "capacity": 18, "availBike": 6,"address": "鲈乡南路流虹路路口"} ,{"id": 61, "name": "市总工会", "lat": 31.155665, "lng": 120.648712, "capacity": 16, "availBike": 6,"address": "垂虹路镇政府"} ,{"id": 62, "name": "垂虹景区", "lat": 31.15695, "lng": 120.64942, "capacity": 20, "availBike": 10,"address": "花园路垂虹景区"} ,{"id": 63, "name": "人民医院", "lat": 31.160714, "lng": 120.648433, "capacity": 20, "availBike": 4,"address": "永康路人民医院"} ,{"id": 64, "name": "吴江中学", "lat": 31.154453, "lng": 120.649892, "capacity": 18, "availBike": 14,"address": "垂虹路花园路路口"} ,{"id": 65, "name": "交巡警大队", "lat": 31.15751, "lng": 120.652896, "capacity": 28, "availBike": 6,"address": "云梨路交巡警大队"} ,{"id": 66, "name": "松陵公园", "lat": 31.158777, "lng": 120.647156, "capacity": 24, "availBike": 14,"address": "流虹路公园路路口"} ,{"id": 67, "name": "太湖小区", "lat": 31.152736, "lng": 120.627136, "capacity": 20, "availBike": 10,"address": "笠泽路"} ,{"id": 68, "name": "68#车站", "lat": 0, "lng": 0, "capacity": 20, "availBike": 1,"address": ""} ] }