{ "station":[{"id": 1, "name": "环城西路一院后", "lat": 31.638868, "lng": 120.739242, "capacity": 30, "availBike": 18,"address": "环城西路一院后门"} ,{"id": 2, "name": "虞山公园入口北", "lat": 31.652468, "lng": 120.73907, "capacity": 20, "availBike": 19,"address": "虞山公园入口南"} ,{"id": 3, "name": "虞山公园入口南", "lat": 31.653007, "lng": 120.73878, "capacity": 28, "availBike": 18,"address": "虞山公园入口北"} ,{"id": 4, "name": "喷泉广场", "lat": 31.651847, "lng": 120.739242, "capacity": 26, "availBike": 5,"address": "北门大街喷泉广场对面"} ,{"id": 5, "name": "重庆德庄火锅", "lat": 31.650568, "lng": 120.739939, "capacity": 30, "availBike": 9,"address": "北门大街重庆德庄火锅对面"} ,{"id": 6, "name": "图书馆", "lat": 31.6457, "lng": 120.740781, "capacity": 20, "availBike": 4,"address": "书院街图书馆停车场"} ,{"id": 7, "name": "寺后街百盛", "lat": 31.644435, "lng": 120.741194, "capacity": 20, "availBike": 2,"address": "寺后街百盛北侧"} ,{"id": 8, "name": "和平街必胜客", "lat": 31.64254, "lng": 120.744188, "capacity": 22, "availBike": 5,"address": "和平街必胜客门口"} ,{"id": 9, "name": "街心花园必胜客", "lat": 31.642305, "lng": 120.744276, "capacity": 28, "availBike": 6,"address": "和平街老县场文化广场"} ,{"id": 10, "name": "草荡街五星电器", "lat": 31.642494, "lng": 120.743855, "capacity": 24, "availBike": 0,"address": "草荡街五星电器门口"} ,{"id": 11, "name": "县南街宝岛眼镜", "lat": 31.6431, "lng": 120.74484, "capacity": 28, "availBike": 1,"address": "县南街宝岛眼镜门口"} ,{"id": 12, "name": "街心花园宝岛眼镜", "lat": 31.64283, "lng": 120.744778, "capacity": 18, "availBike": 2,"address": "街心花园宝岛眼镜门口"} ,{"id": 13, "name": "报慈甬江路口", "lat": 31.66644, "lng": 120.739886, "capacity": 18, "availBike": 14,"address": "报慈甬江路口"} ,{"id": 14, "name": "方塔苑东大门", "lat": 31.645641, "lng": 120.750309, "capacity": 38, "availBike": 19,"address": "环城东路方塔苑东大门北侧"} ,{"id": 15, "name": "嫩江路第五园", "lat": 31.679534, "lng": 120.743973, "capacity": 24, "availBike": 9,"address": "嫩江路第五园门口"} ,{"id": 16, "name": "嫩江路绿山路口", "lat": 31.679333, "lng": 120.738416, "capacity": 16, "availBike": 5,"address": "嫩江路绿山路口"} ,{"id": 17, "name": "绿山路明晖园", "lat": 31.680228, "lng": 120.73951, "capacity": 24, "availBike": 14,"address": "绿山路明晖园门口"} ,{"id": 18, "name": "邻里人家", "lat": 31.678959, "lng": 120.737096, "capacity": 24, "availBike": 13,"address": "嫩江路邻里人家门口"} ,{"id": 19, "name": "星城小学", "lat": 31.677986, "lng": 120.732579, "capacity": 24, "availBike": 16,"address": "嫩江路星城小学对面"} ,{"id": 20, "name": "城市花园北", "lat": 31.667627, "lng": 120.747181, "capacity": 20, "availBike": 14,"address": "李闸路城市花园北门"} ,{"id": 21, "name": "李桥市场", "lat": 31.666778, "lng": 120.746237, "capacity": 22, "availBike": 10,"address": "李闸路李桥市场门口"} ,{"id": 22, "name": "清枫和苑", "lat": 31.658313, "lng": 120.747439, "capacity": 20, "availBike": 4,"address": "李闸路清枫和苑门口"} ,{"id": 23, "name": "湘江西路农行", "lat": 31.660322, "lng": 120.746366, "capacity": 14, "availBike": 13,"address": "湘江西路农行门口"} ,{"id": 24, "name": "广角飙歌会所", "lat": 31.653546, "lng": 120.740014, "capacity": 20, "availBike": 11,"address": "环城北路广角飙歌会所门口"} ,{"id": 25, "name": "老塑料厂东", "lat": 31.652185, "lng": 120.745352, "capacity": 34, "availBike": 9,"address": "环城北路老塑料厂东侧"} ,{"id": 26, "name": "东胜街口公园", "lat": 31.649016, "lng": 120.746328, "capacity": 22, "availBike": 8,"address": "东胜街榆树街口公园一侧"} ,{"id": 27, "name": "元和路常客隆", "lat": 31.632319, "lng": 120.733609, "capacity": 30, "availBike": 21,"address": "元和路常客隆门口"} ,{"id": 28, "name": "广仁医院", "lat": 31.633744, "lng": 120.735455, "capacity": 22, "availBike": 13,"address": "元和路广仁医院"} ,{"id": 29, "name": "佳和广场", "lat": 31.675571, "lng": 120.740111, "capacity": 20, "availBike": 15,"address": "黄河路佳和广场"} ,{"id": 30, "name": "理想茶行", "lat": 31.636694, "lng": 120.746564, "capacity": 22, "availBike": 12,"address": "红旗南路理想茶庄"} ,{"id": 31, "name": "莲花新村", "lat": 31.634913, "lng": 120.744279, "capacity": 18, "availBike": 11,"address": "花园浜路莲花新村西"} ,{"id": 32, "name": "移动营业厅", "lat": 31.653893, "lng": 120.754509, "capacity": 26, "availBike": 12,"address": "金沙江路中国移动营业厅门口"} ,{"id": 33, "name": "南京证券", "lat": 31.64349, "lng": 120.749874, "capacity": 28, "availBike": 12,"address": "环城东路方塔街口南京证券门口"} ,{"id": 34, "name": "明日枫林南", "lat": 31.655528, "lng": 120.746698, "capacity": 20, "availBike": 0,"address": "李闸路明日枫林南"} ,{"id": 35, "name": "百草堂大药房", "lat": 31.662952, "lng": 120.739789, "capacity": 20, "availBike": 8,"address": "百草堂大药房门口"} ,{"id": 36, "name": "珠江路南沙路口", "lat": 31.664943, "lng": 120.743995, "capacity": 16, "availBike": 10,"address": "珠江路南沙路口"} ,{"id": 37, "name": "长江路加油站", "lat": 31.669582, "lng": 120.736699, "capacity": 20, "availBike": 13,"address": "长江路加油站"} ,{"id": 38, "name": "长江路常福园", "lat": 31.668687, "lng": 120.73406, "capacity": 16, "availBike": 8,"address": "长江路常福园门口"} ,{"id": 39, "name": "中法水务", "lat": 31.670787, "lng": 120.751891, "capacity": 14, "availBike": 7,"address": "华山路长江路中法水务人行道"} ,{"id": 40, "name": "国际饭店", "lat": 31.670851, "lng": 120.72773, "capacity": 20, "availBike": 1,"address": "黄河路国际饭店对面"} ,{"id": 41, "name": "报慈北村", "lat": 31.663792, "lng": 120.741184, "capacity": 32, "availBike": 23,"address": "珠江路常福名苑对面"} ,{"id": 42, "name": "城市花园南", "lat": 31.664833, "lng": 120.747814, "capacity": 20, "availBike": 7,"address": "珠江路城市花园南"} ,{"id": 43, "name": "泰安街中段", "lat": 31.649838, "lng": 120.751247, "capacity": 16, "availBike": 9,"address": "泰安街101-217"} ,{"id": 44, "name": "泰安街136号", "lat": 31.650002, "lng": 120.753264, "capacity": 18, "availBike": 2,"address": "泰安街136号"} ,{"id": 45, "name": "跨塘桥可的", "lat": 31.639261, "lng": 120.745583, "capacity": 12, "availBike": 9,"address": "南门大街跨塘桥可的门口"} ,{"id": 46, "name": "书院街草荡路", "lat": 31.642166, "lng": 120.741892, "capacity": 20, "availBike": 4,"address": "书院街草荡路口南"} ,{"id": 47, "name": "冰雪皇后", "lat": 31.651719, "lng": 120.740154, "capacity": 16, "availBike": 7,"address": "北门大街冰雪皇后门口"} ,{"id": 48, "name": "顶顶面馆", "lat": 31.657838, "lng": 120.738802, "capacity": 16, "availBike": 7,"address": "枫林路顶顶面馆门口"} ,{"id": 49, "name": "人才市场", "lat": 31.664833, "lng": 120.751612, "capacity": 26, "availBike": 15,"address": "珠江路人才市场门口"} ,{"id": 50, "name": "珠江路欧尚", "lat": 31.664778, "lng": 120.767555, "capacity": 24, "availBike": 2,"address": "珠江路欧尚门口"} ,{"id": 51, "name": "兴裕园", "lat": 31.667372, "lng": 120.765324, "capacity": 38, "availBike": 9,"address": "兴裕园门口西"} ,{"id": 52, "name": "珠江路泰山路口", "lat": 31.664778, "lng": 120.766032, "capacity": 20, "availBike": 2,"address": "珠江路泰山路口"} ,{"id": 53, "name": "邵文路世茂一期", "lat": 31.661044, "lng": 120.770463, "capacity": 24, "availBike": 9,"address": "邵文路世茂一期"} ,{"id": 54, "name": "枫林路衡山路", "lat": 31.656779, "lng": 120.763693, "capacity": 18, "availBike": 15,"address": "枫林路衡山路口"} ,{"id": 55, "name": "衡山菜场", "lat": 31.663683, "lng": 120.761193, "capacity": 22, "availBike": 17,"address": "衡山菜场对面"} ,{"id": 56, "name": "长江路可的超市", "lat": 31.669088, "lng": 120.76056, "capacity": 20, "availBike": 12,"address": "长江路与衡山路交叉口"} ,{"id": 57, "name": "信一广场对面", "lat": 31.673608, "lng": 120.760989, "capacity": 20, "availBike": 14,"address": "信一广场对面"} ,{"id": 58, "name": "泰慈苑", "lat": 31.677827, "lng": 120.760485, "capacity": 18, "availBike": 18,"address": "衡山路泰慈花园门口"} ,{"id": 59, "name": "海上一品", "lat": 31.678913, "lng": 120.757148, "capacity": 18, "availBike": 12,"address": "勤丰路海上一品对面"} ,{"id": 60, "name": "烟草局", "lat": 31.678895, "lng": 120.755303, "capacity": 14, "availBike": 4,"address": "海虞北路烟草局门口"} ,{"id": 61, "name": "明珠佳苑", "lat": 31.67139, "lng": 120.747321, "capacity": 20, "availBike": 13,"address": "李闸路明珠佳苑门口"} ,{"id": 62, "name": "澳门豆捞", "lat": 31.657272, "lng": 120.742385, "capacity": 44, "availBike": 34,"address": "澳门豆捞"} ,{"id": 63, "name": "明日枫林北", "lat": 31.656532, "lng": 120.746881, "capacity": 20, "availBike": 10,"address": "李闸路明日枫林北"} ,{"id": 64, "name": "枫林路证券公司", "lat": 31.656286, "lng": 120.750346, "capacity": 14, "availBike": 8,"address": "枫林路证券公司门口"} ,{"id": 65, "name": "新客站", "lat": 31.674882, "lng": 120.755035, "capacity": 20, "availBike": 1,"address": "海虞北路新客站门口"} ,{"id": 66, "name": "友通数码", "lat": 31.672814, "lng": 120.753973, "capacity": 18, "availBike": 1,"address": "海虞北路友通数码门口"} ,{"id": 67, "name": "江苏银行", "lat": 31.671682, "lng": 120.755668, "capacity": 22, "availBike": 14,"address": "海虞北路江苏银行门口"} ,{"id": 68, "name": "卢米埃影城", "lat": 31.669088, "lng": 120.767212, "capacity": 30, "availBike": 3,"address": "泰山北路卢米埃影城门口"} ,{"id": 69, "name": "中南世纪城", "lat": 31.659336, "lng": 120.772533, "capacity": 36, "availBike": 12,"address": "世纪大道中南世纪城门口"} ,{"id": 70, "name": "东明医院", "lat": 31.644403, "lng": 120.774164, "capacity": 38, "availBike": 9,"address": "新颜东路东明医院东侧"} ,{"id": 71, "name": "新区医院", "lat": 31.678292, "lng": 120.776482, "capacity": 20, "availBike": 14,"address": "黄河路新区医院门口"} ,{"id": 72, "name": "体育馆", "lat": 31.665801, "lng": 120.754509, "capacity": 42, "availBike": 2,"address": "海虞北路体育馆"} ,{"id": 73, "name": "天铭酒店", "lat": 31.653381, "lng": 120.756247, "capacity": 20, "availBike": 13,"address": "昭文路天铭酒店对面"} ,{"id": 74, "name": "香格丽花园", "lat": 31.653811, "lng": 120.758371, "capacity": 20, "availBike": 13,"address": "昭文路香格丽花园门口"} ,{"id": 75, "name": "昭文公寓", "lat": 31.655377, "lng": 120.762405, "capacity": 20, "availBike": 11,"address": "昭文路昭文公寓对面"} ,{"id": 76, "name": "红枫苑", "lat": 31.676576, "lng": 120.778563, "capacity": 40, "availBike": 30,"address": "华丰路红枫苑"} ,{"id": 77, "name": "华山路闽江社区", "lat": 31.667381, "lng": 120.751113, "capacity": 20, "availBike": 13,"address": "华山路闵江社区门口"} ,{"id": 78, "name": "华山路琴枫苑", "lat": 31.679516, "lng": 120.750968, "capacity": 30, "availBike": 23,"address": "华山路琴枫苑东门"} ,{"id": 79, "name": "通林路黄河路", "lat": 31.672083, "lng": 120.728974, "capacity": 20, "availBike": 12,"address": "通林路黄河路口"} ,{"id": 80, "name": "虞山北路寺路街口", "lat": 31.667856, "lng": 120.728127, "capacity": 32, "availBike": 11,"address": "虞山北路寺路街口"} ,{"id": 81, "name": "来雅咖啡", "lat": 31.662715, "lng": 120.734253, "capacity": 30, "availBike": 0,"address": "虞山北路西侧来雅咖啡店前"} ,{"id": 82, "name": "甸新路凯司令", "lat": 31.644093, "lng": 120.731099, "capacity": 14, "availBike": 11,"address": "甸新路凯司令门前"} ,{"id": 83, "name": "珠江路世贸二期", "lat": 31.664632, "lng": 120.774819, "capacity": 20, "availBike": 12,"address": "珠江路世贸二期门口"} ,{"id": 84, "name": "润欣花园", "lat": 31.673353, "lng": 120.771224, "capacity": 20, "availBike": 16,"address": "世纪大道润欣花园门口"} ,{"id": 85, "name": "新加坡花园", "lat": 31.670148, "lng": 120.763607, "capacity": 38, "availBike": 19,"address": "长江路新加坡花园"} ,{"id": 86, "name": "海虞北路要德火锅", "lat": 31.659427, "lng": 120.755206, "capacity": 20, "availBike": 20,"address": "海虞北路要德火锅"} ,{"id": 87, "name": "经典大药房", "lat": 31.663098, "lng": 120.75511, "capacity": 16, "availBike": 13,"address": "海虞北路经典大药房"} ,{"id": 88, "name": "环城东路阜湖路口", "lat": 31.639891, "lng": 120.749252, "capacity": 24, "availBike": 10,"address": "环城东路阜湖路口"} ,{"id": 89, "name": "港颜街新颜桥", "lat": 31.643846, "lng": 120.750486, "capacity": 16, "availBike": 2,"address": "港颜街新颜桥东南侧"} ,{"id": 90, "name": "人民桥公交站", "lat": 31.63753, "lng": 120.74451, "capacity": 20, "availBike": 7,"address": "环城南路人民桥公交站"} ,{"id": 91, "name": "琴湖路大润发南", "lat": 31.64281, "lng": 120.764734, "capacity": 16, "availBike": 8,"address": "琴湖路大润发南"} ,{"id": 92, "name": "琴湖路大润发北", "lat": 31.643344, "lng": 120.764819, "capacity": 34, "availBike": 13,"address": "琴湖路大润发北"} ,{"id": 93, "name": "小金渔具", "lat": 31.646235, "lng": 120.767148, "capacity": 32, "availBike": 17,"address": "琴湖路小金渔具对面"} ,{"id": 94, "name": "海虞北路闽江路", "lat": 31.667527, "lng": 120.755206, "capacity": 18, "availBike": 8,"address": "海虞北路闽江路口"} ,{"id": 95, "name": "明都花园", "lat": 31.676421, "lng": 120.764519, "capacity": 20, "availBike": 14,"address": "黄河路明都花园"} ,{"id": 96, "name": "泰山菜场", "lat": 31.679251, "lng": 120.767072, "capacity": 24, "availBike": 10,"address": "泰山菜场对面"} ,{"id": 97, "name": "锦湖花园", "lat": 31.680767, "lng": 120.767072, "capacity": 20, "availBike": 14,"address": "泰山路锦湖花园门口"} ,{"id": 98, "name": "珠江路世茂一期", "lat": 31.663893, "lng": 120.769765, "capacity": 22, "availBike": 8,"address": "珠江路世茂一期"} ,{"id": 99, "name": "锦荷佳苑一期", "lat": 31.643508, "lng": 120.779164, "capacity": 20, "availBike": 11,"address": "富康路锦荷佳苑一期北门人行道"} ,{"id": 100, "name": "金山菜场", "lat": 31.642787, "lng": 120.782694, "capacity": 18, "availBike": 6,"address": "富康路金山菜场"} ,{"id": 101, "name": "金山苑三期", "lat": 31.639645, "lng": 120.790558, "capacity": 42, "availBike": 18,"address": "香椿路金山苑三期门口"} ,{"id": 102, "name": "金山苑一期", "lat": 31.636009, "lng": 120.785086, "capacity": 32, "availBike": 14,"address": "香榭路金山苑一期后门口"} ,{"id": 103, "name": "百盛花园三期", "lat": 31.627788, "lng": 120.779679, "capacity": 40, "availBike": 23,"address": "富兴路百盛花园三期"} ,{"id": 104, "name": "百盛花园一期", "lat": 31.631086, "lng": 120.778177, "capacity": 24, "availBike": 11,"address": "富阳路百盛花园一期"} ,{"id": 105, "name": "琴湖城市广场", "lat": 31.635077, "lng": 120.778992, "capacity": 24, "availBike": 15,"address": "琴湖城市广场门口"} ,{"id": 106, "name": "锦绣佳苑", "lat": 31.636923, "lng": 120.778949, "capacity": 20, "availBike": 14,"address": "香山路锦绣佳苑入口"} ,{"id": 107, "name": "海虞北路湘江路口", "lat": 31.661075, "lng": 120.754589, "capacity": 24, "availBike": 19,"address": "海虞北路湘江路口"} ,{"id": 108, "name": "老检察院对面", "lat": 31.653208, "lng": 120.751945, "capacity": 28, "availBike": 27,"address": "老检察院对面"} ,{"id": 109, "name": "1979原创摄影", "lat": 31.649683, "lng": 120.757422, "capacity": 32, "availBike": 13,"address": "1979原创摄影门口"} ,{"id": 110, "name": "海虞南路枫泾桥", "lat": 31.645892, "lng": 120.757245, "capacity": 28, "availBike": 2,"address": "海虞南路枫泾桥"} ,{"id": 111, "name": "方塔东街东入口", "lat": 31.643618, "lng": 120.757095, "capacity": 20, "availBike": 0,"address": "方塔东街东入口粥店门口"} ,{"id": 112, "name": "印象城", "lat": 31.649203, "lng": 120.757926, "capacity": 20, "availBike": 5,"address": "海虞南路印象城西侧"} ,{"id": 113, "name": "缤纷年华", "lat": 31.643408, "lng": 120.755013, "capacity": 20, "availBike": 2,"address": "方塔东街缤纷年华东侧"} ,{"id": 114, "name": "蓝天家园", "lat": 31.639613, "lng": 120.756826, "capacity": 22, "availBike": 4,"address": "海虞南路蓝天家园"} ,{"id": 115, "name": "城市之光", "lat": 31.63943, "lng": 120.754895, "capacity": 20, "availBike": 12,"address": "阜湖路城市之光入口处"} ,{"id": 116, "name": "鸽球市场", "lat": 31.628578, "lng": 120.752825, "capacity": 28, "availBike": 25,"address": "鸽球市场"} ,{"id": 117, "name": "开元大道世纪大道", "lat": 31.654623, "lng": 120.77528, "capacity": 34, "availBike": 17,"address": "开元大道世纪大道交叉口"} ,{"id": 118, "name": "湖苑菜场", "lat": 31.642714, "lng": 120.769047, "capacity": 30, "availBike": 25,"address": "湖苑菜场对面小广场"} ,{"id": 119, "name": "沃尔玛停车场", "lat": 31.648614, "lng": 120.760034, "capacity": 20, "availBike": 2,"address": "枫泾路沃尔玛停车场出口"} ,{"id": 120, "name": "二院行政楼", "lat": 31.648513, "lng": 120.759605, "capacity": 30, "availBike": 8,"address": "枫泾路二院行政楼门口"} ,{"id": 121, "name": "新颜路琴湖桥", "lat": 31.643536, "lng": 120.76041, "capacity": 28, "availBike": 12,"address": "新颜路琴湖桥"} ,{"id": 122, "name": "世纪联华超市", "lat": 31.629898, "lng": 120.74717, "capacity": 30, "availBike": 11,"address": "白雪路世纪联华超市"} ,{"id": 123, "name": "书院街一院", "lat": 31.639005, "lng": 120.740669, "capacity": 22, "availBike": 14,"address": "书院街一院"} ,{"id": 124, "name": "红发渔具", "lat": 31.675946, "lng": 120.744381, "capacity": 24, "availBike": 6,"address": "南沙路红发渔具"} ,{"id": 125, "name": "少年之家", "lat": 31.671755, "lng": 120.735358, "capacity": 18, "availBike": 14,"address": "报慈北路少年之家对面可的"} ,{"id": 126, "name": "城北派出所", "lat": 31.669773, "lng": 120.740873, "capacity": 30, "availBike": 18,"address": "城北派出所"} ,{"id": 127, "name": "第九公馆", "lat": 31.660655, "lng": 120.737439, "capacity": 20, "availBike": 8,"address": "虞山北路报慈浜路第九公馆"} ,{"id": 128, "name": "新建路站公园", "lat": 31.633927, "lng": 120.742595, "capacity": 26, "availBike": 9,"address": "新建路站公园"} ,{"id": 129, "name": "瑞丽医院", "lat": 31.635315, "lng": 120.74636, "capacity": 28, "availBike": 6,"address": "花园浜路瑞丽医院"} ,{"id": 130, "name": "陈家市", "lat": 31.633452, "lng": 120.750797, "capacity": 28, "availBike": 19,"address": "陈家市"} ,{"id": 131, "name": "锋线运动城", "lat": 31.644266, "lng": 120.752374, "capacity": 20, "availBike": 8,"address": "方塔街锋线运动城"} ,{"id": 132, "name": "泰安菜场停车场", "lat": 31.648934, "lng": 120.751559, "capacity": 12, "availBike": 7,"address": "泰安街泰安菜场停车场"} ,{"id": 133, "name": "青墩塘路荷花苑", "lat": 31.646883, "lng": 120.782447, "capacity": 18, "availBike": 4,"address": ""} ,{"id": 134, "name": "虞山国际花园", "lat": 31.67454, "lng": 120.73451, "capacity": 18, "availBike": 4,"address": "黄河路报慈北路虞山国际花园"} ,{"id": 135, "name": "泰慈花园", "lat": 31.675928, "lng": 120.762545, "capacity": 20, "availBike": 14,"address": "黄河路泰慈苑"} ,{"id": 136, "name": "衡泰国际花园", "lat": 31.673271, "lng": 120.764208, "capacity": 40, "availBike": 20,"address": "淮河路衡泰国际花园"} ,{"id": 137, "name": "朋友装饰", "lat": 31.664386, "lng": 120.758597, "capacity": 22, "availBike": 6,"address": "珠江路朋友装饰"} ,{"id": 138, "name": "新起点房产", "lat": 31.664313, "lng": 120.760249, "capacity": 20, "availBike": 10,"address": "珠江路新起点房产"} ,{"id": 139, "name": "花溪新村", "lat": 31.628866, "lng": 120.755389, "capacity": 26, "availBike": 20,"address": "琴湖路花溪新村"} ,{"id": 140, "name": "海虞北路海通证券", "lat": 31.657455, "lng": 120.755196, "capacity": 20, "availBike": 15,"address": "海虞北路海通证券门口"} ,{"id": 141, "name": "华府世家", "lat": 31.656249, "lng": 120.75438, "capacity": 22, "availBike": 2,"address": "海虞北路枫林路"} ,{"id": 142, "name": "山湖苑", "lat": 31.645061, "lng": 120.728642, "capacity": 18, "availBike": 17,"address": "甸新路山湖路"} ,{"id": 143, "name": "金枫家园", "lat": 31.621644, "lng": 120.773005, "capacity": 18, "availBike": 12,"address": "渠中路"} ,{"id": 144, "name": "富康苑", "lat": 31.629597, "lng": 120.785054, "capacity": 48, "availBike": 22,"address": "富阳路东香榭路南"} ,{"id": 145, "name": "明日星洲", "lat": 31.639371, "lng": 120.77498, "capacity": 20, "availBike": 19,"address": "新世纪大道富泰路明日星洲"} ,{"id": 146, "name": "枫林桥西侧", "lat": 31.656916, "lng": 120.759391, "capacity": 28, "availBike": 16,"address": "枫林路枫林桥西侧"} ,{"id": 147, "name": "档案局", "lat": 31.654486, "lng": 120.75099, "capacity": 18, "availBike": 4,"address": "嵩山路档案局"} ,{"id": 148, "name": "招商城派出所", "lat": 31.619639, "lng": 120.74569, "capacity": 38, "availBike": 23,"address": "商城中路"} ,{"id": 149, "name": "测试4号", "lat": 0, "lng": 0, "capacity": 14, "availBike": 0,"address": ""} ,{"id": 150, "name": "香山苑", "lat": 31.639014, "lng": 120.779915, "capacity": 30, "availBike": 5,"address": "富泰路香山苑"} ,{"id": 151, "name": "李闸路湘江东路", "lat": 31.661418, "lng": 120.747492, "capacity": 24, "availBike": 20,"address": "李闸路湘江东路"} ,{"id": 152, "name": "测试5号", "lat": 0, "lng": 0, "capacity": 20, "availBike": 2,"address": ""} ,{"id": 153, "name": "测试6号", "lat": 0, "lng": 0, "capacity": 14, "availBike": 0,"address": ""} ,{"id": 154, "name": "测试7号", "lat": 0, "lng": 0, "capacity": 40, "availBike": 0,"address": ""} ,{"id": 155, "name": "世贸中心", "lat": 31.676179, "lng": 120.755005, "capacity": 40, "availBike": 8,"address": ""} ] }