{ "station":[{"id": 1, "name": "昆山市公安局", "lat": 31.38405, "lng": 120.988655, "capacity": 50, "availBike": 8,"address": "前进东路昆山法院门口"} ,{"id": 2, "name": "费尔蒙酒店", "lat": 31.386322, "lng": 120.83725, "capacity": 30, "availBike": 12,"address": "阳澄湖费尔蒙酒店"} ,{"id": 3, "name": "怡乡春竹", "lat": 31.386175, "lng": 120.937693, "capacity": 28, "availBike": 8,"address": "马鞍山路和凌家路交叉"} ,{"id": 4, "name": "通澄花园", "lat": 31.382429, "lng": 120.883545, "capacity": 28, "availBike": 11,"address": "前进西路通澄花园"} ,{"id": 5, "name": "登云大学", "lat": 31.389289, "lng": 120.890894, "capacity": 30, "availBike": 11,"address": "马鞍山西路登云大学"} ,{"id": 6, "name": "金澄花园", "lat": 31.381559, "lng": 120.889027, "capacity": 30, "availBike": 10,"address": "前进西路金澄花园"} ,{"id": 7, "name": "新江南", "lat": 31.384856, "lng": 120.895808, "capacity": 30, "availBike": 0,"address": "苇城南路8路公交底站"} ,{"id": 8, "name": "体育中心（北）", "lat": 31.388245, "lng": 120.90718, "capacity": 20, "availBike": 4,"address": "马鞍山路体育中心"} ,{"id": 9, "name": "文化艺术中心", "lat": 31.381344, "lng": 120.908881, "capacity": 30, "availBike": 24,"address": "前进西路文化艺术中心"} ,{"id": 10, "name": "创业大厦", "lat": 31.381046, "lng": 120.909798, "capacity": 30, "availBike": 17,"address": "前进西路创业大厦"} ,{"id": 11, "name": "森林公园", "lat": 31.388923, "lng": 120.909111, "capacity": 30, "availBike": 3,"address": "马鞍山中路森林公园，体育中心北边"} ,{"id": 12, "name": "罗马假日", "lat": 31.400961, "lng": 120.921278, "capacity": 26, "availBike": 12,"address": "花园路西，过339省道"} ,{"id": 13, "name": "好美家花园", "lat": 31.400215, "lng": 120.926991, "capacity": 26, "availBike": 15,"address": "花园路西，靠近泾河花园"} ,{"id": 14, "name": "一中", "lat": 31.386798, "lng": 120.922834, "capacity": 30, "availBike": 18,"address": "339省道马鞍山中路"} ,{"id": 15, "name": "共青新村", "lat": 31.381092, "lng": 120.915645, "capacity": 50, "availBike": 14,"address": "前进西路共青小区"} ,{"id": 16, "name": "阿里山花园", "lat": 31.388607, "lng": 120.933428, "capacity": 20, "availBike": 12,"address": "虹桥路，虹桥新村附近"} ,{"id": 17, "name": "交通局", "lat": 31.382301, "lng": 120.934061, "capacity": 27, "availBike": 8,"address": "虹桥路，前进路往北"} ,{"id": 18, "name": "凯迪城", "lat": 31.380267, "lng": 120.933251, "capacity": 40, "availBike": 13,"address": "前进路虹桥路口"} ,{"id": 19, "name": "玉峰中学", "lat": 31.38623, "lng": 120.943594, "capacity": 20, "availBike": 8,"address": "马鞍山路玉峰大桥东侧"} ,{"id": 20, "name": "欧尚", "lat": 31.379439, "lng": 120.942296, "capacity": 28, "availBike": 15,"address": "白马泾路欧尚超市自行车停车场"} ,{"id": 21, "name": "红峰门诊部", "lat": 31.382406, "lng": 120.945026, "capacity": 20, "availBike": 8,"address": "红峰路，富利天酒店往北"} ,{"id": 22, "name": "新公馆花园", "lat": 31.378138, "lng": 120.945348, "capacity": 20, "availBike": 15,"address": "震川西路，新公馆花园"} ,{"id": 23, "name": "沃尔玛", "lat": 31.380803, "lng": 120.946614, "capacity": 17, "availBike": 7,"address": "前进西路，沃尔玛超市"} ,{"id": 24, "name": "亭林园（西）", "lat": 31.388126, "lng": 120.948991, "capacity": 30, "availBike": 2,"address": "中山路马鞍山路交叉"} ,{"id": 25, "name": "亭林园（东）", "lat": 31.389596, "lng": 120.9534, "capacity": 22, "availBike": 0,"address": "亭林路马鞍山路口"} ,{"id": 26, "name": "秀峰桥", "lat": 31.385887, "lng": 120.950337, "capacity": 20, "availBike": 19,"address": "中山路秀峰桥"} ,{"id": 27, "name": "秀峰新村", "lat": 31.384975, "lng": 120.950825, "capacity": 20, "availBike": 12,"address": "中山路，红峰二村"} ,{"id": 28, "name": "红峰新村", "lat": 31.382576, "lng": 120.950664, "capacity": 18, "availBike": 10,"address": "红峰路基督教徒旁边"} ,{"id": 29, "name": "二院", "lat": 31.380762, "lng": 120.952756, "capacity": 24, "availBike": 11,"address": "中山路靠近前进路状元巷内"} ,{"id": 30, "name": "中山新村", "lat": 31.378692, "lng": 120.951383, "capacity": 18, "availBike": 6,"address": "中山路，中山新村"} ,{"id": 31, "name": "西大桥", "lat": 31.37653, "lng": 120.951147, "capacity": 26, "availBike": 6,"address": "震川西路西大桥东侧"} ,{"id": 32, "name": "省中", "lat": 31.385855, "lng": 120.953014, "capacity": 32, "availBike": 2,"address": "西塘街，省中"} ,{"id": 33, "name": "柴王弄", "lat": 31.385323, "lng": 120.955471, "capacity": 24, "availBike": 0,"address": "奥灶馆南面"} ,{"id": 34, "name": "家乐福", "lat": 31.382979, "lng": 120.952263, "capacity": 47, "availBike": 3,"address": "中山路中段，家乐福超市"} ,{"id": 35, "name": "前进菜场", "lat": 31.382191, "lng": 120.956426, "capacity": 18, "availBike": 0,"address": "人民路前进路口"} ,{"id": 36, "name": "琅环公园", "lat": 31.379855, "lng": 120.954591, "capacity": 38, "availBike": 1,"address": "南街，城中派出所往西"} ,{"id": 37, "name": "南街", "lat": 31.377721, "lng": 120.953089, "capacity": 18, "availBike": 1,"address": "中山路南街交叉口"} ,{"id": 38, "name": "远大宾馆", "lat": 31.376988, "lng": 120.953068, "capacity": 20, "availBike": 2,"address": "震川路中山路交叉"} ,{"id": 39, "name": "金色港湾", "lat": 31.388318, "lng": 120.991402, "capacity": 28, "availBike": 14,"address": "同丰东路和桃花江路往北，金色港湾"} ,{"id": 40, "name": "玉峰社区", "lat": 31.387631, "lng": 120.954881, "capacity": 20, "availBike": 2,"address": "环城北路西头，靠近亭林路"} ,{"id": 41, "name": "东吴证券", "lat": 31.387906, "lng": 120.95664, "capacity": 20, "availBike": 4,"address": "环城北路东吴证券"} ,{"id": 42, "name": "里库二村", "lat": 31.384985, "lng": 120.959355, "capacity": 18, "availBike": 3,"address": "实验小学东，里厍二村"} ,{"id": 43, "name": "玉山广场", "lat": 31.383263, "lng": 120.956211, "capacity": 26, "availBike": 0,"address": "亭林路玉山镇政府旁边"} ,{"id": 44, "name": "采莲街停车场", "lat": 31.382837, "lng": 120.960841, "capacity": 20, "availBike": 1,"address": "前进路采莲街口"} ,{"id": 45, "name": "昆山宾馆", "lat": 31.380922, "lng": 120.957579, "capacity": 40, "availBike": 1,"address": "昆山宾馆南侧"} ,{"id": 46, "name": "新华书店", "lat": 31.379164, "lng": 120.957541, "capacity": 20, "availBike": 1,"address": "人民路新华书店"} ,{"id": 47, "name": "正阳桥（北）", "lat": 31.377446, "lng": 120.957343, "capacity": 28, "availBike": 0,"address": "人民路震川路交叉"} ,{"id": 48, "name": "昆山商厦", "lat": 31.375362, "lng": 120.957595, "capacity": 38, "availBike": 0,"address": "人民路昆山商厦南侧"} ,{"id": 49, "name": "中医院", "lat": 31.373645, "lng": 120.954173, "capacity": 30, "availBike": 7,"address": "朝阳路新闸路口，中医院西"} ,{"id": 50, "name": "锦阳苑", "lat": 31.37059, "lng": 120.954452, "capacity": 34, "availBike": 15,"address": "新闸路，锦阳苑"} ,{"id": 51, "name": "竹园四季花城", "lat": 31.392893, "lng": 120.959049, "capacity": 22, "availBike": 9,"address": "紫竹路南，四季花城门口"} ,{"id": 52, "name": "二中", "lat": 31.388488, "lng": 120.95907, "capacity": 18, "availBike": 16,"address": "环城北路中段，二中门口往左"} ,{"id": 53, "name": "娄邑小区", "lat": 31.387915, "lng": 120.964354, "capacity": 44, "availBike": 7,"address": "柏庐大桥南侧，靠近东门"} ,{"id": 54, "name": "银洲花园", "lat": 31.386111, "lng": 120.963335, "capacity": 18, "availBike": 8,"address": "横街银州花园门口"} ,{"id": 55, "name": "晒谷场小区", "lat": 31.380125, "lng": 120.959988, "capacity": 18, "availBike": 5,"address": "集街晒谷场小区"} ,{"id": 56, "name": "一院", "lat": 31.382544, "lng": 120.961946, "capacity": 14, "availBike": 0,"address": "前进西路一院停车场"} ,{"id": 57, "name": "柏庐公园", "lat": 31.382356, "lng": 120.96436, "capacity": 28, "availBike": 0,"address": "柏庐路前进路口，广场内"} ,{"id": 58, "name": "怡景湾", "lat": 31.37969, "lng": 120.965765, "capacity": 20, "availBike": 1,"address": "柏庐路靠近集街，怡景湾门口"} ,{"id": 59, "name": "玉山农贸市场", "lat": 31.378628, "lng": 120.959215, "capacity": 17, "availBike": 1,"address": "农工商超市北面，玉山农贸市场"} ,{"id": 60, "name": "巴黎春天", "lat": 31.377891, "lng": 120.964494, "capacity": 34, "availBike": 3,"address": "柏庐路震川路口，巴黎春天"} ,{"id": 61, "name": "五星电器", "lat": 31.374009, "lng": 120.958976, "capacity": 20, "availBike": 9,"address": "朝阳西路，五星电器，老汽车站对面"} ,{"id": 62, "name": "朝阳东村", "lat": 31.373723, "lng": 120.957997, "capacity": 28, "availBike": 1,"address": "人民路朝阳路口"} ,{"id": 63, "name": "朝阳菜场", "lat": 31.371227, "lng": 120.958046, "capacity": 30, "availBike": 6,"address": "人民南路，朝阳菜场"} ,{"id": 64, "name": "玉龙菜场", "lat": 31.385621, "lng": 120.966055, "capacity": 34, "availBike": 7,"address": "同丰西路，同丰饭店对面"} ,{"id": 65, "name": "葛江中学", "lat": 31.367594, "lng": 120.960009, "capacity": 18, "availBike": 14,"address": "合兴路火车站对面"} ,{"id": 66, "name": "儿童公园", "lat": 31.38416, "lng": 120.967855, "capacity": 20, "availBike": 1,"address": "儿童公园东侧，中国移动门口"} ,{"id": 67, "name": "图书馆", "lat": 31.383144, "lng": 120.969196, "capacity": 45, "availBike": 1,"address": "前进路，瑞士大酒店东面"} ,{"id": 68, "name": "建设局", "lat": 31.386047, "lng": 120.972041, "capacity": 46, "availBike": 5,"address": "同丰路珠江路交叉"} ,{"id": 69, "name": "市民文化广场", "lat": 31.382489, "lng": 120.970277, "capacity": 41, "availBike": 20,"address": "珠江路市民文化广场"} ,{"id": 70, "name": "中茵广场", "lat": 31.372784, "lng": 120.965969, "capacity": 32, "availBike": 11,"address": "朝阳西路柏庐南路口"} ,{"id": 71, "name": "雍景湾", "lat": 31.371598, "lng": 120.965567, "capacity": 30, "availBike": 8,"address": "柏庐南路，雍景湾门口"} ,{"id": 72, "name": "卫生局", "lat": 31.38623, "lng": 120.976306, "capacity": 44, "availBike": 9,"address": "同丰路黄河北路口，卫生局"} ,{"id": 73, "name": "太平洋保险", "lat": 31.386106, "lng": 120.974525, "capacity": 29, "availBike": 12,"address": "同丰路太平洋保险门口"} ,{"id": 74, "name": "黄河北路", "lat": 31.384091, "lng": 120.975837, "capacity": 19, "availBike": 10,"address": "前进路靠近黄河北路"} ,{"id": 75, "name": "审批中心", "lat": 31.382969, "lng": 120.976328, "capacity": 27, "availBike": 0,"address": "前进路，一醉酒店对面"} ,{"id": 76, "name": "樾城路", "lat": 31.386329, "lng": 120.98096, "capacity": 27, "availBike": 24,"address": "同丰路樾城路口，市政府后门"} ,{"id": 77, "name": "科博中心", "lat": 31.383066, "lng": 120.980351, "capacity": 51, "availBike": 1,"address": "前进路长江路口，市政府前门"} ,{"id": 78, "name": "中央公园", "lat": 31.378289, "lng": 120.981418, "capacity": 32, "availBike": 7,"address": "震川路黑龙江路口往西"} ,{"id": 79, "name": "裕元酒店", "lat": 31.374891, "lng": 120.976526, "capacity": 14, "availBike": 4,"address": "黄河路，裕元酒店往西"} ,{"id": 80, "name": "东方华庭", "lat": 31.383693, "lng": 120.993199, "capacity": 22, "availBike": 2,"address": "前进东路青阳路口，东方华庭门口"} ,{"id": 81, "name": "尚东国际", "lat": 31.386803, "lng": 121.00161, "capacity": 19, "availBike": 9,"address": "樾河北路同丰路口"} ,{"id": 82, "name": "黎明清境", "lat": 31.383666, "lng": 120.999674, "capacity": 28, "availBike": 17,"address": "前进中路，黎明清境门口"} ,{"id": 83, "name": "友谊分院", "lat": 31.37931, "lng": 120.995978, "capacity": 30, "availBike": 0,"address": "青阳路震川路口，友谊医院"} ,{"id": 84, "name": "美华园", "lat": 31.376979, "lng": 120.996117, "capacity": 20, "availBike": 0,"address": "青阳南路，青阳派出所门口"} ,{"id": 85, "name": "震川市场", "lat": 31.379301, "lng": 121.001471, "capacity": 35, "availBike": 14,"address": "震川东路，靠近樾河路"} ,{"id": 86, "name": "樾河北路", "lat": 31.38253, "lng": 121.001932, "capacity": 30, "availBike": 20,"address": "樾河北路中国银行门口"} ,{"id": 87, "name": "宗仁卿纪念医院", "lat": 31.383592, "lng": 121.003729, "capacity": 20, "availBike": 5,"address": "前进东路，宗仁卿医院门口"} ,{"id": 88, "name": "黄浦公园", "lat": 31.383455, "lng": 121.009845, "capacity": 30, "availBike": 13,"address": "前进东路，黄埔公园人口处"} ,{"id": 89, "name": "震川中学", "lat": 31.379425, "lng": 121.003482, "capacity": 30, "availBike": 14,"address": "震川路樾河路口东"} ,{"id": 90, "name": "捷安特", "lat": 31.356569, "lng": 121.005907, "capacity": 20, "availBike": 0,"address": "朝阳东路，捷安特公司门口"} ,{"id": 91, "name": "永盛广场", "lat": 31.414564, "lng": 120.950831, "capacity": 26, "availBike": 20,"address": "北门路北，永盛广场门口"} ,{"id": 92, "name": "锦隆佳园", "lat": 31.412197, "lng": 120.93581, "capacity": 19, "availBike": 17,"address": "环庆路15路公交站点"} ,{"id": 93, "name": "裕丰大厦", "lat": 31.403942, "lng": 120.946523, "capacity": 21, "availBike": 16,"address": "萧林西路，裕丰大厦门口"} ,{"id": 94, "name": "秀峰中学", "lat": 31.397454, "lng": 120.943127, "capacity": 38, "availBike": 33,"address": "花园路，靠近水秀路"} ,{"id": 95, "name": "城市之光", "lat": 31.409102, "lng": 120.951201, "capacity": 15, "availBike": 1,"address": "北门路城市之光"} ,{"id": 96, "name": "希望之城", "lat": 31.406836, "lng": 120.949286, "capacity": 18, "availBike": 14,"address": "北门路北，希望之城门口"} ,{"id": 97, "name": "昆山商厦北门店", "lat": 31.403044, "lng": 120.951667, "capacity": 30, "availBike": 3,"address": "北门路萧林路南，北门店门口"} ,{"id": 98, "name": "振华园", "lat": 31.397266, "lng": 120.948073, "capacity": 18, "availBike": 9,"address": "花园路，振华园门口"} ,{"id": 99, "name": "青城之恋", "lat": 31.408351, "lng": 120.95906, "capacity": 20, "availBike": 9,"address": "紫竹路北，青城之恋门口"} ,{"id": 100, "name": "吉隆市场", "lat": 31.397298, "lng": 120.952735, "capacity": 18, "availBike": 14,"address": "花园路北门路口往右"} ,{"id": 101, "name": "三院", "lat": 31.402761, "lng": 120.958824, "capacity": 16, "availBike": 2,"address": "紫竹路萧林路口，三院门口"} ,{"id": 102, "name": "阳光昆城", "lat": 31.399464, "lng": 120.958738, "capacity": 30, "availBike": 21,"address": "紫竹路，阳光昆城门口"} ,{"id": 103, "name": "富贵花园", "lat": 31.39815, "lng": 120.961103, "capacity": 20, "availBike": 10,"address": "花园路，富贵花园门口"} ,{"id": 104, "name": "兰园小区", "lat": 31.397605, "lng": 120.959044, "capacity": 18, "availBike": 8,"address": "紫竹路娄苑路口"} ,{"id": 105, "name": "新港湾", "lat": 31.401543, "lng": 120.96532, "capacity": 29, "availBike": 12,"address": "柏庐路北，靠近新港湾酒店"} ,{"id": 106, "name": "职业学院", "lat": 31.395499, "lng": 120.967155, "capacity": 20, "availBike": 8,"address": "娄苑路东，电大门口"} ,{"id": 107, "name": "澳洲阳光花园", "lat": 31.393008, "lng": 120.964317, "capacity": 42, "availBike": 20,"address": "柏庐北路，澳洲阳光花园门口"} ,{"id": 108, "name": "滨江丽景", "lat": 31.39129, "lng": 120.970513, "capacity": 39, "availBike": 23,"address": "昆太路汉林路口"} ,{"id": 109, "name": "汉浦新村", "lat": 31.394409, "lng": 120.977009, "capacity": 14, "availBike": 12,"address": "长江北路，规划局对面"} ,{"id": 110, "name": "阳光世纪花园西", "lat": 31.394661, "lng": 120.97886, "capacity": 42, "availBike": 2,"address": "长江北路，春晖路往东"} ,{"id": 111, "name": "阳光世纪花园北", "lat": 31.397417, "lng": 120.981161, "capacity": 40, "availBike": 27,"address": "春晖路，阳光四季花园北门口"} ,{"id": 112, "name": "春晖锦苑", "lat": 31.398228, "lng": 120.987942, "capacity": 16, "availBike": 9,"address": "春晖路，靠近青阳路春晖景苑"} ,{"id": 113, "name": "新镇农贸市场", "lat": 31.404624, "lng": 121.003386, "capacity": 20, "availBike": 8,"address": "萧林东路，新镇农贸市场"} ,{"id": 114, "name": "新镇中学", "lat": 31.399061, "lng": 121.007763, "capacity": 30, "availBike": 12,"address": "东方路，新镇中学门口"} ,{"id": 115, "name": "昆山站（北）", "lat": 31.36759, "lng": 120.958689, "capacity": 30, "availBike": 21,"address": "合兴路人民路交叉"} ,{"id": 116, "name": "仁宝新天地", "lat": 31.363554, "lng": 120.950986, "capacity": 16, "availBike": 4,"address": "衡山路西，仁宝新天地门口"} ,{"id": 117, "name": "昆山南站", "lat": 31.35125, "lng": 120.952354, "capacity": 50, "availBike": 17,"address": "昆山南站南广场门口"} ,{"id": 118, "name": "人才市场", "lat": 31.339925, "lng": 120.951085, "capacity": 30, "availBike": 2,"address": "崂山路，昆山人才市场"} ,{"id": 119, "name": "枫景苑", "lat": 31.348369, "lng": 120.953958, "capacity": 20, "availBike": 0,"address": "枫景苑C区商业街"} ,{"id": 120, "name": "新客站", "lat": 31.341057, "lng": 120.954822, "capacity": 50, "availBike": 7,"address": "崂山路昆山新客站公交停车场"} ,{"id": 121, "name": "衡山城", "lat": 31.358044, "lng": 120.954795, "capacity": 30, "availBike": 22,"address": "中华园路，衡山城门口"} ,{"id": 122, "name": "四季华城（南）", "lat": 31.357109, "lng": 120.957885, "capacity": 18, "availBike": 4,"address": "中华园路，四季华城南门口"} ,{"id": 123, "name": "四季华城（北）", "lat": 31.360004, "lng": 120.959113, "capacity": 20, "availBike": 12,"address": "衡山路西，四季华城北门口"} ,{"id": 124, "name": "博悦电脑城", "lat": 31.357338, "lng": 120.963523, "capacity": 60, "availBike": 23,"address": "柏庐南路，博悦电脑城门口"} ,{"id": 125, "name": "乐购", "lat": 31.35142, "lng": 120.959923, "capacity": 30, "availBike": 16,"address": "柏庐南路，乐购超市门口"} ,{"id": 126, "name": "福泰隆", "lat": 31.35708, "lng": 120.967313, "capacity": 22, "availBike": 19,"address": "衡山路，嵩山路附近"} ,{"id": 127, "name": "香城名园", "lat": 31.360018, "lng": 120.950155, "capacity": 20, "availBike": 14,"address": "中华园路，昆山国际学校东"} ,{"id": 128, "name": "城西派出所", "lat": 31.386194, "lng": 120.930226, "capacity": 40, "availBike": 3,"address": "马鞍山西路，城西派出所门口"} ,{"id": 129, "name": "火炬新村", "lat": 31.404395, "lng": 120.949988, "capacity": 16, "availBike": 5,"address": "萧林路北门路口西"} ,{"id": 130, "name": "时代名苑", "lat": 31.404775, "lng": 120.994068, "capacity": 15, "availBike": 9,"address": "萧林路青阳路口"} ,{"id": 131, "name": "锦秀佳园", "lat": 31.396982, "lng": 120.99439, "capacity": 16, "availBike": 12,"address": "青阳北路青阳大桥北"} ,{"id": 132, "name": "周市卫生服务中心", "lat": 31.404029, "lng": 120.997651, "capacity": 20, "availBike": 3,"address": "新浦路，周市卫生服务中心门口"} ,{"id": 133, "name": "祥和花园", "lat": 31.393392, "lng": 120.985351, "capacity": 32, "availBike": 16,"address": "白塘南路祥和国际大厦"} ,{"id": 134, "name": "君临天下", "lat": 31.406213, "lng": 120.983366, "capacity": 19, "availBike": 13,"address": "白塘路，君临天下门口"} ,{"id": 135, "name": "大德世家", "lat": 31.407989, "lng": 120.990361, "capacity": 27, "availBike": 13,"address": "金浦路，云山诗意门口"} ,{"id": 136, "name": "云山诗意", "lat": 31.406433, "lng": 120.985887, "capacity": 28, "availBike": 10,"address": "横泾路，云山诗意门口"} ,{"id": 137, "name": "长江花园", "lat": 31.399116, "lng": 120.978752, "capacity": 18, "availBike": 10,"address": "长江北路，长江花园门口"} ,{"id": 138, "name": "昆山花园", "lat": 31.399588, "lng": 120.978248, "capacity": 20, "availBike": 2,"address": "长江北路，昆山花园门口"} ,{"id": 139, "name": "江南明珠苑", "lat": 31.406547, "lng": 120.978109, "capacity": 14, "availBike": 1,"address": "长江北路，江南明珠苑门口"} ,{"id": 140, "name": "巴比伦花园", "lat": 31.40603, "lng": 120.978543, "capacity": 20, "availBike": 0,"address": "长江北路，巴比伦花园门口"} ,{"id": 141, "name": "澳宇花园", "lat": 31.411203, "lng": 120.977991, "capacity": 20, "availBike": 11,"address": "长江北路，澳宇花园门口"} ,{"id": 142, "name": "凤凰城", "lat": 31.414001, "lng": 120.977905, "capacity": 20, "availBike": 8,"address": "长江北路，近339省道凤凰城门口"} ,{"id": 143, "name": "花都艺墅", "lat": 31.413218, "lng": 120.978323, "capacity": 20, "availBike": 5,"address": "长江北路，花都艺墅门口"} ,{"id": 144, "name": "康城", "lat": 31.402944, "lng": 120.969928, "capacity": 32, "availBike": 30,"address": "萧林东路，康城门口"} ,{"id": 145, "name": "金色森林", "lat": 31.390764, "lng": 120.899289, "capacity": 19, "availBike": 2,"address": "森林路院士路口"} ,{"id": 146, "name": "祝家厍新村", "lat": 31.378193, "lng": 120.976467, "capacity": 26, "availBike": 12,"address": "震川路和长江路交叉，物价局门口"} ,{"id": 147, "name": "规划局", "lat": 31.394562, "lng": 120.977457, "capacity": 30, "availBike": 28,"address": "长江路，规划局门口"} ,{"id": 148, "name": "宝岛丽园", "lat": 31.399221, "lng": 120.968474, "capacity": 26, "availBike": 3,"address": "昆太路市后街路口东"} ,{"id": 149, "name": "质检局", "lat": 31.396762, "lng": 120.976124, "capacity": 36, "availBike": 4,"address": "长江路，质检局门口"} ,{"id": 150, "name": "朝阳广场", "lat": 31.372894, "lng": 120.951855, "capacity": 34, "availBike": 22,"address": "合兴路朝阳路交叉"} ,{"id": 151, "name": "尚城国际", "lat": 31.423092, "lng": 120.950316, "capacity": 28, "availBike": 26,"address": "北门路，过339省道，尚城国际门口"} ,{"id": 152, "name": "开发区管委会", "lat": 31.383281, "lng": 121.038265, "capacity": 26, "availBike": 12,"address": "前进东路开发区管委会停车场"} ,{"id": 153, "name": "1号", "lat": 31.358071, "lng": 121.005703, "capacity": 6, "availBike": 4,"address": ""} ,{"id": 154, "name": "2号", "lat": 31.358859, "lng": 121.00521, "capacity": 4, "availBike": 0,"address": ""} ,{"id": 155, "name": "3号", "lat": 31.35962, "lng": 121.006079, "capacity": 4, "availBike": 2,"address": ""} ,{"id": 156, "name": "4号", "lat": 31.360261, "lng": 121.004748, "capacity": 4, "availBike": 1,"address": ""} ] }