{ "station":[{"id": 1, "name": "瑞慈医院", "lat": 31.93887, "lng": 120.909905, "capacity": 40, "availBike": 0,"address": "星湖大道瑞慈医院门口西边"} ,{"id": 2, "name": "交警五大队", "lat": 31.930202, "lng": 120.926256, "capacity": 30, "availBike": 10,"address": "中央路与星湖大道交叉路口"} ,{"id": 3, "name": "携程南楼", "lat": 31.923756, "lng": 120.954387, "capacity": 40, "availBike": 4,"address": "能达商务区携程门口"} ,{"id": 4, "name": "管委会北", "lat": 31.925212, "lng": 120.957992, "capacity": 30, "availBike": 1,"address": "能达商务区管委会北门门口"} ,{"id": 5, "name": "世界之窗", "lat": 31.923428, "lng": 120.955954, "capacity": 28, "availBike": 14,"address": "能达商务区招商办南门门口"} ,{"id": 6, "name": "四海家园东门", "lat": 31.93084, "lng": 120.944602, "capacity": 20, "availBike": 20,"address": "新开北路四海家园东门门口"} ,{"id": 7, "name": "四海家园南门", "lat": 31.92952, "lng": 120.942886, "capacity": 26, "availBike": 25,"address": "复兴路四海家园服务中心门口"} ,{"id": 8, "name": "德诚嘉园", "lat": 31.91392, "lng": 120.939528, "capacity": 30, "availBike": 1,"address": "新开南路德诚嘉园门口"} ,{"id": 9, "name": "东方中学", "lat": 31.921515, "lng": 120.941577, "capacity": 32, "availBike": 15,"address": "新开南路东方中学往南200米"} ,{"id": 10, "name": "航运学院", "lat": 31.917454, "lng": 120.958507, "capacity": 30, "availBike": 19,"address": "通盛大道航运学校西门门口"} ,{"id": 11, "name": "天星湖中学", "lat": 31.909931, "lng": 120.960181, "capacity": 30, "availBike": 25,"address": "振兴东路天星湖中学门口"} ,{"id": 12, "name": "工贸技师学院", "lat": 31.908966, "lng": 120.964301, "capacity": 30, "availBike": 19,"address": "振兴东路工贸技师学院门口"} ,{"id": 13, "name": "新开卫生服务中心", "lat": 31.907308, "lng": 120.944839, "capacity": 18, "availBike": 13,"address": "新河路新开社区卫生服务中心门口"} ,{"id": 14, "name": "新开派出所", "lat": 31.908638, "lng": 120.940086, "capacity": 20, "availBike": 14,"address": "瑞兴路新开派出所西边公交站台旁"} ,{"id": 15, "name": "乐天玛特", "lat": 31.919198, "lng": 120.940845, "capacity": 54, "availBike": 0,"address": "新开南路与上海路交叉路口乐天玛特超市门口"} ,{"id": 16, "name": "星湖街区", "lat": 31.920204, "lng": 120.949398, "capacity": 28, "availBike": 13,"address": "新河路星湖街区东门门口"} ,{"id": 17, "name": "实验小学东校区", "lat": 31.912973, "lng": 120.945697, "capacity": 20, "availBike": 20,"address": "振兴东路新开工商所对面"} ,{"id": 18, "name": "文峰千家惠", "lat": 31.920705, "lng": 120.934764, "capacity": 20, "availBike": 5,"address": "上海路文峰千家惠超市西边公交站点旁"} ,{"id": 19, "name": "天星建设", "lat": 31.919794, "lng": 120.928992, "capacity": 47, "availBike": 38,"address": "中央路幸福大厦门口"} ,{"id": 20, "name": "中兴派出所", "lat": 31.922845, "lng": 120.928981, "capacity": 18, "availBike": 17,"address": "上海路中兴派出所西墙边"} ,{"id": 21, "name": "中国银行", "lat": 31.923082, "lng": 120.93088, "capacity": 30, "availBike": 13,"address": "中央路中国银行门口"} ,{"id": 22, "name": "中国海事", "lat": 31.925067, "lng": 120.931808, "capacity": 46, "availBike": 13,"address": "中央路中国海事局门口"} ,{"id": 23, "name": "星湖花园东门", "lat": 31.927143, "lng": 120.943583, "capacity": 40, "availBike": 13,"address": "星湖大道星湖花园东门门口"} ,{"id": 24, "name": "电子工业园", "lat": 31.893591, "lng": 120.941405, "capacity": 20, "availBike": 10,"address": "新河路8844商务楼大门里面"} ,{"id": 25, "name": "良春风湿病医院", "lat": 31.918009, "lng": 120.94556, "capacity": 20, "availBike": 14,"address": "上海东路良春风湿病医院门口"} ,{"id": 26, "name": "新开菜场", "lat": 31.912791, "lng": 120.939378, "capacity": 46, "availBike": 32,"address": "新开南路新开农贸市场门口"} ,{"id": 27, "name": "星湖花园南门", "lat": 31.924853, "lng": 120.941309, "capacity": 30, "availBike": 14,"address": "新开北路星湖花园南门门口"} ,{"id": 28, "name": "投资服务中心", "lat": 31.932133, "lng": 120.935805, "capacity": 25, "availBike": 4,"address": "中央路投资服务中心对面"} ,{"id": 29, "name": "邻里中心", "lat": 31.930712, "lng": 120.928423, "capacity": 30, "availBike": 10,"address": "中天路开发区邻里中心对面公交站点旁"} ,{"id": 30, "name": "实验小学西校区", "lat": 31.916707, "lng": 120.934024, "capacity": 30, "availBike": 11,"address": "振兴路与育才路交叉口"} ,{"id": 31, "name": "振兴花园东门", "lat": 31.916379, "lng": 120.939431, "capacity": 38, "availBike": 17,"address": "新开路振兴花园门口"} ,{"id": 32, "name": "春天社区广场", "lat": 31.908492, "lng": 120.950418, "capacity": 30, "availBike": 19,"address": "新景路"} ,{"id": 33, "name": "华南照明", "lat": 31.90403, "lng": 120.940783, "capacity": 19, "availBike": 0,"address": "花园港路"} ,{"id": 34, "name": "中央路吉兴路口", "lat": 31.912063, "lng": 120.923767, "capacity": 30, "availBike": 0,"address": "中央路吉兴路口"} ,{"id": 35, "name": "民兴路广州路口", "lat": 31.917946, "lng": 120.919862, "capacity": 30, "availBike": 20,"address": "民兴路广州路口"} ,{"id": 36, "name": "爱德华帽业", "lat": 31.932588, "lng": 120.915248, "capacity": 20, "availBike": 15,"address": "通富南路"} ,{"id": 37, "name": "大洋时装", "lat": 31.937068, "lng": 120.923445, "capacity": 20, "availBike": 10,"address": "复兴路"} ,{"id": 38, "name": "富来威", "lat": 31.94264, "lng": 120.925012, "capacity": 20, "availBike": 15,"address": "科兴路"} ,{"id": 39, "name": "星通花园", "lat": 31.945608, "lng": 120.915077, "capacity": 30, "availBike": 23,"address": "科兴路"} ,{"id": 40, "name": "添逸纺织", "lat": 31.923573, "lng": 120.922823, "capacity": 20, "availBike": 4,"address": "湛江路"} ,{"id": 41, "name": "港口二区", "lat": 31.923537, "lng": 120.910485, "capacity": 28, "availBike": 16,"address": "通富南路"} ,{"id": 42, "name": "中国税务", "lat": 31.923901, "lng": 120.949645, "capacity": 20, "availBike": 0,"address": "金桥路"} ,{"id": 43, "name": "华洋化工", "lat": 31.90525, "lng": 120.921922, "capacity": 15, "availBike": 6,"address": "中央路"} ,{"id": 44, "name": "开发区法院", "lat": 31.935811, "lng": 120.917695, "capacity": 18, "availBike": 4,"address": "通富北路"} ,{"id": 45, "name": "爱玛花苑", "lat": 31.919822, "lng": 120.938154, "capacity": 36, "availBike": 16,"address": "上海路爱玛花苑旁"} ,{"id": 46, "name": "振兴路温州路口", "lat": 31.9176, "lng": 120.930827, "capacity": 38, "availBike": 20,"address": "振兴路温州路口"} ,{"id": 47, "name": "富新社区", "lat": 31.915519, "lng": 120.936349, "capacity": 40, "availBike": 19,"address": "振兴路富新社区"} ,{"id": 48, "name": "美亚热电", "lat": 31.90893, "lng": 120.922565, "capacity": 40, "availBike": 3,"address": "中央路12号"} ,{"id": 49, "name": "汇羽丰南门", "lat": 31.914175, "lng": 120.918789, "capacity": 38, "availBike": 11,"address": "吉兴路"} ,{"id": 50, "name": "星海花园北门", "lat": 31.913984, "lng": 120.942156, "capacity": 40, "availBike": 28,"address": "振兴东路"} ,{"id": 51, "name": "春天花园北门", "lat": 31.911789, "lng": 120.95031, "capacity": 36, "availBike": 28,"address": "振兴东路"} ,{"id": 52, "name": "中天(新开南路)", "lat": 31.895959, "lng": 120.935515, "capacity": 40, "availBike": 29,"address": "和兴路"} ,{"id": 53, "name": "月星家居", "lat": 31.923737, "lng": 120.926728, "capacity": 40, "availBike": 12,"address": "上海路通州路口处"} ,{"id": 54, "name": "广州路宁波路口", "lat": 31.926433, "lng": 120.925741, "capacity": 36, "availBike": 17,"address": "广州路宁波路口处"} ,{"id": 55, "name": "帝人南门", "lat": 31.914995, "lng": 120.928423, "capacity": 36, "availBike": 8,"address": "民兴路帝人公司"} ,{"id": 56, "name": "东英药业", "lat": 31.934336, "lng": 120.931256, "capacity": 36, "availBike": 9,"address": "中天路"} ,{"id": 57, "name": "杨子高丽", "lat": 31.928582, "lng": 120.934453, "capacity": 36, "availBike": 6,"address": "中央路安惠国际对面"} ,{"id": 58, "name": "罗莱北区", "lat": 31.948357, "lng": 120.933509, "capacity": 54, "availBike": 11,"address": "源兴路罗莱新厂房大门东侧"} ,{"id": 59, "name": "携程北楼", "lat": 31.925012, "lng": 120.954452, "capacity": 40, "availBike": 24,"address": "能达商务区携程大楼东门北侧"} ] }