{ "station":[{"id": 1, "name": "动物园", "lat": 31.320171, "lng": 120.637093, "capacity": 20, "availBike": 16,"address": "北仓街白塔东路交叉口"} ,{"id": 2, "name": "北寺塔南", "lat": 31.320721, "lng": 120.619969, "capacity": 20, "availBike": 6,"address": "人民路与西北街交叉口南侧"} ,{"id": 3, "name": "平四路", "lat": 31.326916, "lng": 120.614519, "capacity": 20, "availBike": 9,"address": "平四路古城墙旁"} ,{"id": 4, "name": "中山大厦", "lat": 31.315157, "lng": 120.620152, "capacity": 20, "availBike": 8,"address": "人民路329号江苏省苏州市沧浪区"} ,{"id": 5, "name": "三元坊路口", "lat": 31.297878, "lng": 120.623649, "capacity": 20, "availBike": 7,"address": "人民路801号江苏省苏州市沧浪区"} ,{"id": 6, "name": "工人文化宫南", "lat": 31.292043, "lng": 120.624634, "capacity": 20, "availBike": 6,"address": "竹辉路文化宫对面"} ,{"id": 7, "name": "人民桥北", "lat": 31.289301, "lng": 120.624838, "capacity": 20, "availBike": 11,"address": "人民桥北"} ,{"id": 8, "name": "葑门路口", "lat": 31.299301, "lng": 120.64511, "capacity": 20, "availBike": 15,"address": "莫邪路徐公桥北侧"} ,{"id": 9, "name": "西北街口", "lat": 31.322341, "lng": 120.626605, "capacity": 20, "availBike": 13,"address": "朱鸿兴卤菜馆西侧"} ,{"id": 10, "name": "中国银行门口", "lat": 31.311931, "lng": 120.6213, "capacity": 16, "availBike": 5,"address": "人民路中国银行门口"} ,{"id": 11, "name": "公安局旁", "lat": 31.303917, "lng": 120.622737, "capacity": 20, "availBike": 11,"address": "人民路公安局南侧"} ,{"id": 12, "name": "和基广场", "lat": 31.308823, "lng": 120.631117, "capacity": 20, "availBike": 5,"address": "和基广场前"} ,{"id": 13, "name": "中国邮政", "lat": 31.317815, "lng": 120.624569, "capacity": 20, "availBike": 18,"address": "白塔西路邮政储蓄所门口"} ,{"id": 14, "name": "观前街（东）", "lat": 31.310577, "lng": 120.62947, "capacity": 20, "availBike": 2,"address": "临顿路醋坊桥观前街东侧公交站点后面"} ,{"id": 15, "name": "市政府", "lat": 31.297805, "lng": 120.587397, "capacity": 20, "availBike": 9,"address": "三香路市政府大门旁"} ,{"id": 16, "name": "三香路工商银行", "lat": 31.299592, "lng": 120.608779, "capacity": 20, "availBike": 6,"address": "三香路工商银行旁"} ,{"id": 17, "name": "广电总台", "lat": 31.29383, "lng": 120.634255, "capacity": 20, "availBike": 10,"address": "竹辉路广电总台门口"} ,{"id": 18, "name": "市政设施处", "lat": 31.300378, "lng": 120.614069, "capacity": 20, "availBike": 13,"address": "道前街市政设施处东侧"} ,{"id": 19, "name": "行政服务中心", "lat": 31.297983, "lng": 120.596538, "capacity": 20, "availBike": 17,"address": "三香路行政服务中心门口"} ,{"id": 20, "name": "江苏银行", "lat": 31.301302, "lng": 120.625758, "capacity": 20, "availBike": 9,"address": "十梓街江苏银行东侧"} ,{"id": 21, "name": "苏州日报社", "lat": 31.301848, "lng": 120.62848, "capacity": 16, "availBike": 7,"address": "十梓街双塔街道门口"} ,{"id": 22, "name": "环境监测中心站", "lat": 31.299723, "lng": 120.60316, "capacity": 20, "availBike": 17,"address": "三香路市环境监测中心"} ,{"id": 23, "name": "恒润大厦", "lat": 31.293056, "lng": 120.635483, "capacity": 20, "availBike": 9,"address": "竹辉路与南园北路交叉口"} ,{"id": 24, "name": "白塔子桥", "lat": 31.318283, "lng": 120.627158, "capacity": 14, "availBike": 5,"address": "市立医院东区"} ,{"id": 25, "name": "市便民服务中心", "lat": 31.286303, "lng": 120.581595, "capacity": 20, "availBike": 8,"address": "西环路往南临近劳动路口"} ,{"id": 26, "name": "山塘街游客中心", "lat": 31.316537, "lng": 120.603766, "capacity": 20, "availBike": 9,"address": "山塘街游客中心门口"} ,{"id": 27, "name": "新民桥南", "lat": 31.318196, "lng": 120.600845, "capacity": 20, "availBike": 14,"address": "广济路山塘景区售票处"} ,{"id": 28, "name": "东吴饭店", "lat": 31.298889, "lng": 120.637326, "capacity": 26, "availBike": 16,"address": "十全街原石音乐酒吧门口"} ,{"id": 29, "name": "沧浪区政府", "lat": 31.301912, "lng": 120.631337, "capacity": 18, "availBike": 8,"address": "十梓街沧浪区政府门口"} ,{"id": 30, "name": "平江路口", "lat": 31.318865, "lng": 120.631903, "capacity": 20, "availBike": 11,"address": "白塔东路工商银行门口"} ,{"id": 31, "name": "留园", "lat": 31.31557, "lng": 120.592074, "capacity": 20, "availBike": 10,"address": "留园景点西侧"} ,{"id": 32, "name": "倪家苑", "lat": 31.315691, "lng": 120.576791, "capacity": 18, "availBike": 11,"address": "西园路西"} ,{"id": 33, "name": "新庄新村", "lat": 31.317128, "lng": 120.574503, "capacity": 20, "availBike": 7,"address": "西环路新庄新村西出口"} ,{"id": 34, "name": "金阊区政府", "lat": 31.321124, "lng": 120.573519, "capacity": 20, "availBike": 11,"address": "西环路北"} ,{"id": 35, "name": "寒山寺", "lat": 31.310907, "lng": 120.57033, "capacity": 20, "availBike": 6,"address": "枫桥路西"} ,{"id": 36, "name": "三元二村", "lat": 31.306898, "lng": 120.578942, "capacity": 20, "availBike": 12,"address": "金门路三元二村北门"} ,{"id": 37, "name": "南园桥南堍", "lat": 31.286088, "lng": 120.637522, "capacity": 20, "availBike": 16,"address": "南园桥转南门路拐角处"} ,{"id": 38, "name": "25号小区", "lat": 31.282892, "lng": 120.636808, "capacity": 20, "availBike": 17,"address": "南园南路"} ,{"id": 39, "name": "好又多", "lat": 31.27911, "lng": 120.627705, "capacity": 18, "availBike": 3,"address": "东吴北路南环路交叉口"} ,{"id": 40, "name": "南华公寓", "lat": 31.279642, "lng": 120.634716, "capacity": 20, "availBike": 14,"address": "南环新村站台旁"} ,{"id": 41, "name": "博雅苑", "lat": 31.266501, "lng": 120.606837, "capacity": 16, "availBike": 11,"address": "宝带西路博雅苑南门"} ,{"id": 42, "name": "大润发", "lat": 31.281797, "lng": 120.611987, "capacity": 20, "availBike": 13,"address": "解放东路盘胥路交叉口"} ,{"id": 43, "name": "盘景苑", "lat": 31.288105, "lng": 120.611258, "capacity": 20, "availBike": 5,"address": "盘胥路盘景苑小区门口"} ,{"id": 44, "name": "阊胥路供电公司", "lat": 31.304245, "lng": 120.606266, "capacity": 20, "availBike": 7,"address": "阊胥路干将西路交叉"} ,{"id": 45, "name": "石路", "lat": 31.31241, "lng": 120.602833, "capacity": 16, "availBike": 3,"address": "阊胥路爱河桥站"} ,{"id": 46, "name": "黄鹂坊农贸市场", "lat": 31.309933, "lng": 120.610501, "capacity": 16, "availBike": 6,"address": "景德路吴趋坊"} ,{"id": 47, "name": "中市桥", "lat": 31.316305, "lng": 120.614216, "capacity": 16, "availBike": 11,"address": "东中市中心街交叉口"} ,{"id": 48, "name": "桐泾公园", "lat": 31.281265, "lng": 120.600185, "capacity": 20, "availBike": 14,"address": "桐泾南路桐泾公园门口"} ,{"id": 49, "name": "金桥新村", "lat": 31.28915, "lng": 120.606762, "capacity": 20, "availBike": 18,"address": "胥江路金桥新村对面"} ,{"id": 50, "name": "苏州公园", "lat": 31.304538, "lng": 120.627764, "capacity": 20, "availBike": 10,"address": "五卅路民治路交叉口"} ,{"id": 51, "name": "会议中心", "lat": 31.300887, "lng": 120.61858, "capacity": 20, "availBike": 6,"address": "会议中心广场道前街花坛内侧"} ,{"id": 52, "name": "青山度假山庄", "lat": 31.327173, "lng": 120.431657, "capacity": 20, "availBike": 9,"address": "苏州市科普路光启路"} ,{"id": 53, "name": "软件园", "lat": 31.325835, "lng": 120.422387, "capacity": 20, "availBike": 11,"address": "苏州市科灵路济慈路"} ,{"id": 54, "name": "索迪教育", "lat": 31.317091, "lng": 120.419619, "capacity": 20, "availBike": 14,"address": "苏州市青山路玉屏路"} ,{"id": 55, "name": "社区中心生活馆", "lat": 31.333331, "lng": 120.424833, "capacity": 20, "availBike": 10,"address": "苏州市以升南路科普路"} ,{"id": 56, "name": "科技城管委会", "lat": 31.334908, "lng": 120.418868, "capacity": 20, "availBike": 13,"address": "苏州市龙山前龙山路"} ,{"id": 58, "name": "医工所", "lat": 31.326073, "lng": 120.417248, "capacity": 20, "availBike": 9,"address": "苏州市科灵路青山路"} ,{"id": 60, "name": "科技城派出所", "lat": 31.360325, "lng": 120.433223, "capacity": 20, "availBike": 8,"address": "苏州昆仑山路嘉陵江路"} ,{"id": 61, "name": "生物医药产业园", "lat": 31.312838, "lng": 120.436978, "capacity": 18, "availBike": 10,"address": "苏州市玉屏路锦峰路"} ,{"id": 62, "name": "高博学院", "lat": 31.323672, "lng": 120.415821, "capacity": 20, "availBike": 10,"address": "苏州市龙山路"} ,{"id": 65, "name": "平江市民健身中心", "lat": 31.342976, "lng": 120.60261, "capacity": 20, "availBike": 11,"address": "平泷路广济北路交叉口"} ,{"id": 66, "name": "火车站北广场", "lat": 31.331847, "lng": 120.607953, "capacity": 20, "availBike": 4,"address": "苏站路"} ,{"id": 67, "name": "平江区政府", "lat": 31.333423, "lng": 120.617588, "capacity": 20, "availBike": 9,"address": "平江区政府大门北侧"} ,{"id": 68, "name": "汽车北站", "lat": 31.329638, "lng": 120.619433, "capacity": 40, "availBike": 14,"address": "汽车站广场西侧"} ,{"id": 69, "name": "日规路天桥口", "lat": 31.321912, "lng": 120.646609, "capacity": 20, "availBike": 19,"address": "东环路日规路交叉口"} ,{"id": 70, "name": "苏大校区东大门", "lat": 31.30347, "lng": 120.651866, "capacity": 20, "availBike": 19,"address": "东环路学校大门南侧"} ,{"id": 71, "name": "网师园", "lat": 31.2983, "lng": 120.6322, "capacity": 20, "availBike": 3,"address": "十全街带城桥路西南侧"} ,{"id": 72, "name": "电力培训中心", "lat": 31.296081, "lng": 120.599311, "capacity": 20, "availBike": 9,"address": "劳动路电力培训中心"} ,{"id": 73, "name": "朱家庄新村", "lat": 31.309259, "lng": 120.596377, "capacity": 20, "availBike": 9,"address": "枫桥路金门路"} ,{"id": 74, "name": "金阊区少年宫", "lat": 31.308095, "lng": 120.575718, "capacity": 20, "availBike": 4,"address": "金门路西环路交叉口"} ,{"id": 75, "name": "经贸大厦", "lat": 31.296384, "lng": 120.578138, "capacity": 20, "availBike": 4,"address": "西环路三香路交叉口"} ,{"id": 76, "name": "馨泓花园", "lat": 31.307847, "lng": 120.584081, "capacity": 16, "availBike": 10,"address": "金门路馨泓花园大门东侧"} ,{"id": 77, "name": "石路广场", "lat": 31.309772, "lng": 120.599279, "capacity": 20, "availBike": 7,"address": "金门路广济南路"} ,{"id": 78, "name": "苏景街道", "lat": 31.336058, "lng": 120.605341, "capacity": 20, "availBike": 11,"address": "广济北路"} ,{"id": 79, "name": "天筑家园西门", "lat": 31.336782, "lng": 120.595808, "capacity": 20, "availBike": 10,"address": "江河路"} ,{"id": 80, "name": "大观名园北门", "lat": 31.33587, "lng": 120.595813, "capacity": 20, "availBike": 8,"address": "江新路"} ,{"id": 81, "name": "平江新城管委会", "lat": 31.342747, "lng": 120.595449, "capacity": 20, "availBike": 12,"address": "平泷路江星路"} ,{"id": 82, "name": "火车站长途楼", "lat": 31.331434, "lng": 120.606918, "capacity": 20, "availBike": 10,"address": "苏站路"} ,{"id": 83, "name": "三香路家乐福", "lat": 31.296388, "lng": 120.58171, "capacity": 20, "availBike": 6,"address": "三香路家乐福公交站台旁"} ,{"id": 84, "name": "新沧花园", "lat": 31.295669, "lng": 120.592622, "capacity": 20, "availBike": 15,"address": "桐泾南路吴地人家对面"} ,{"id": 86, "name": "龙港花苑", "lat": 31.278514, "lng": 120.619884, "capacity": 20, "availBike": 15,"address": "南环路龙港花苑东侧"} ,{"id": 87, "name": "定慧寺巷", "lat": 31.306367, "lng": 120.63235, "capacity": 14, "availBike": 12,"address": "凤凰街276号"} ,{"id": 88, "name": "沧浪市民中心", "lat": 31.282008, "lng": 120.610378, "capacity": 18, "availBike": 11,"address": "解放东路"} ,{"id": 501, "name": "东港二村北门", "lat": 31.317861, "lng": 120.652971, "capacity": 30, "availBike": 18,"address": "东环路现代大道"} ,{"id": 502, "name": "印象城购物中心", "lat": 31.318741, "lng": 120.658293, "capacity": 30, "availBike": 1,"address": "现代大道南侧（S227省道东）"} ,{"id": 503, "name": "新馨花园东门", "lat": 31.311078, "lng": 120.661232, "capacity": 20, "availBike": 15,"address": "星明街西侧（苏惠路南）"} ,{"id": 504, "name": "贵都花园东门", "lat": 31.316523, "lng": 120.660117, "capacity": 20, "availBike": 8,"address": "星明街西侧（苏绣路口）"} ,{"id": 505, "name": "天虹商业广场", "lat": 31.316413, "lng": 120.66458, "capacity": 20, "availBike": 0,"address": "苏绣路南侧（星都街西）"} ,{"id": 506, "name": "都市花园南门", "lat": 31.316908, "lng": 120.663443, "capacity": 20, "availBike": 3,"address": "苏绣路北侧（星兰街口）"} ,{"id": 507, "name": "新城花园南门", "lat": 31.320831, "lng": 120.664065, "capacity": 30, "availBike": 22,"address": "现代大道北侧（星都街西）"} ,{"id": 508, "name": "新城邻里中心南", "lat": 31.321674, "lng": 120.668871, "capacity": 40, "availBike": 4,"address": "现代大道北侧（星海街西）"} ,{"id": 509, "name": "星海游泳馆", "lat": 31.320446, "lng": 120.670094, "capacity": 30, "availBike": 1,"address": "星海街现代大道东南"} ,{"id": 510, "name": "新加花园南门", "lat": 31.322169, "lng": 120.672991, "capacity": 32, "availBike": 29,"address": "现代大道北侧（星汉街口）"} ,{"id": 511, "name": "天域小区南门", "lat": 31.319731, "lng": 120.676467, "capacity": 30, "availBike": 11,"address": "苏绣路北侧（星港街西）"} ,{"id": 512, "name": "中茵皇冠酒店", "lat": 31.320098, "lng": 120.679536, "capacity": 20, "availBike": 2,"address": "香樟园北一支路北侧"} ,{"id": 513, "name": "师惠坊", "lat": 31.311848, "lng": 120.667434, "capacity": 20, "availBike": 10,"address": "星都街东侧（苏惠路南）"} ,{"id": 514, "name": "疾病防治中心", "lat": 31.308842, "lng": 120.667005, "capacity": 30, "availBike": 6,"address": "苏茜路北侧（星都街西）"} ,{"id": 515, "name": "加城花园西门", "lat": 31.30666, "lng": 120.673356, "capacity": 30, "availBike": 22,"address": "星海街东侧（金鸡湖路北）"} ,{"id": 516, "name": "星海公园西", "lat": 31.308695, "lng": 120.672283, "capacity": 30, "availBike": 10,"address": "星海街东侧（苏茜路北）"} ,{"id": 517, "name": "左岸商业街A区", "lat": 31.313792, "lng": 120.672626, "capacity": 20, "availBike": 7,"address": "苏惠路星原街西北"} ,{"id": 518, "name": "嘉怡苑西门", "lat": 31.308732, "lng": 120.675373, "capacity": 20, "availBike": 9,"address": "星汉街东侧（金鸡湖路北）"} ,{"id": 519, "name": "都市花园西门", "lat": 31.319346, "lng": 120.665567, "capacity": 20, "availBike": 11,"address": "星都街东侧（现代大道南）"} ,{"id": 520, "name": "中国银行园区支行", "lat": 31.316001, "lng": 120.672444, "capacity": 20, "availBike": 4,"address": "苏华路北侧"} ,{"id": 521, "name": "枫情水岸南门", "lat": 31.314736, "lng": 120.726099, "capacity": 20, "availBike": 13,"address": "天宝街和会心街交界处"} ,{"id": 522, "name": "东湖大郡一期东", "lat": 31.31238, "lng": 120.726593, "capacity": 30, "availBike": 4,"address": "长乐街和会心街交界处"} ,{"id": 523, "name": "摩天轮公园", "lat": 31.316376, "lng": 120.714576, "capacity": 48, "availBike": 18,"address": "锦融街和钟园路交界处"} ,{"id": 524, "name": "玲珑邻里中心", "lat": 31.329922, "lng": 120.700479, "capacity": 28, "availBike": 26,"address": "玲珑街和沈浒路交界处"} ,{"id": 525, "name": "中海湖滨一号", "lat": 31.328658, "lng": 120.707656, "capacity": 30, "availBike": 17,"address": "沈浒路南侧（玲珑街东）"} ,{"id": 526, "name": "九龙医院西", "lat": 31.327558, "lng": 120.726464, "capacity": 30, "availBike": 15,"address": "万盛街东侧（九华路北）"} ,{"id": 527, "name": "青少年活动中心西", "lat": 31.326513, "lng": 120.73348, "capacity": 30, "availBike": 10,"address": "南施街东侧（现代大道北）"} ,{"id": 528, "name": "中海星湖国际北门", "lat": 31.327338, "lng": 120.716186, "capacity": 30, "availBike": 18,"address": "九华路北侧（星湖街西）"} ,{"id": 529, "name": "湖畔花园西门", "lat": 31.323874, "lng": 120.678892, "capacity": 28, "availBike": 9,"address": "星港街东侧（现代大道北）"} ,{"id": 530, "name": "湖滨大道入口南", "lat": 31.313205, "lng": 120.681016, "capacity": 30, "availBike": 13,"address": "星港街东侧"} ,{"id": 531, "name": "风之园", "lat": 31.306275, "lng": 120.683506, "capacity": 20, "availBike": 19,"address": "星州街金鸡湖路东北"} ,{"id": 532, "name": "百润发超市", "lat": 31.318448, "lng": 120.64913, "capacity": 30, "availBike": 30,"address": "东环路现代大道"} ,{"id": 533, "name": "行政服务中心西", "lat": 31.323727, "lng": 120.722269, "capacity": 26, "availBike": 2,"address": "星湖街东侧轨道站点附近"} ,{"id": 534, "name": "橄榄湾西门", "lat": 31.299565, "lng": 120.725091, "capacity": 30, "availBike": 29,"address": "星湖街东侧（淞江路北）"} ,{"id": 535, "name": "澳韵花园南门", "lat": 31.306935, "lng": 120.738845, "capacity": 20, "availBike": 19,"address": "琼姬路北侧（津梁街西第一个门口）"} ,{"id": 536, "name": "湖畔天城南", "lat": 31.316688, "lng": 120.737429, "capacity": 20, "availBike": 19,"address": "钟慧路北侧（小区南门入口）"} ,{"id": 537, "name": "农历广场", "lat": 31.309658, "lng": 120.683913, "capacity": 30, "availBike": 4,"address": "星州街东侧"} ,{"id": 538, "name": "李公堤入口", "lat": 31.302141, "lng": 120.687228, "capacity": 20, "availBike": 3,"address": "李公堤入口景观铺地"} ,{"id": 539, "name": "李公堤中段", "lat": 31.302443, "lng": 120.694256, "capacity": 20, "availBike": 9,"address": "金鸡湖景区游客中心西"} ,{"id": 540, "name": "李公堤东端", "lat": 31.296338, "lng": 120.695801, "capacity": 20, "availBike": 11,"address": "李公堤三期入口南"} ,{"id": 541, "name": "湖东邻里中心北", "lat": 31.313865, "lng": 120.728288, "capacity": 20, "availBike": 3,"address": "邻里生鲜菜场北"} ,{"id": 542, "name": "东方花园南门", "lat": 31.320153, "lng": 120.659323, "capacity": 20, "availBike": 20,"address": "现代大道北侧（星明街西）"} ,{"id": 543, "name": "国际科技园西", "lat": 31.296155, "lng": 120.66797, "capacity": 18, "availBike": 8,"address": "金鸡湖大道南侧（通园路东）"} ,{"id": 544, "name": "中央公园东门", "lat": 31.31458, "lng": 120.663679, "capacity": 20, "availBike": 3,"address": "星兰街西侧"} ,{"id": 545, "name": "国检大厦", "lat": 31.313352, "lng": 120.668979, "capacity": 20, "availBike": 8,"address": "星桂街苏惠路西北"} ,{"id": 546, "name": "世纪广场", "lat": 31.317, "lng": 120.675609, "capacity": 40, "availBike": 8,"address": "星阳街东侧"} ,{"id": 547, "name": "加城湖滨公寓东门", "lat": 31.324075, "lng": 120.677283, "capacity": 20, "availBike": 15,"address": "星港街西侧（苏慕路南）"} ,{"id": 548, "name": "沁苑小区北", "lat": 31.324845, "lng": 120.680909, "capacity": 20, "availBike": 17,"address": "小区西门以北"} ,{"id": 549, "name": "高尔夫花园西门", "lat": 31.295348, "lng": 120.686295, "capacity": 20, "availBike": 12,"address": "星波街东侧（高和路北）"} ,{"id": 550, "name": "金姬墩公园北", "lat": 31.308787, "lng": 120.721142, "capacity": 20, "availBike": 8,"address": "琼姬墩路南侧（星湖街西）"} ,{"id": 551, "name": "东城郡东门", "lat": 31.315973, "lng": 120.732343, "capacity": 18, "availBike": 14,"address": "南施街西侧（金塔路北）"} ,{"id": 552, "name": "金湖湾西门南", "lat": 31.31722, "lng": 120.734339, "capacity": 20, "availBike": 12,"address": "南施街东侧（钟园路南）"} ,{"id": 553, "name": "自由水岸花园西门", "lat": 31.318649, "lng": 120.741248, "capacity": 20, "availBike": 15,"address": "津梁街东侧（钟园路南）"} ,{"id": 554, "name": "湖左岸西门", "lat": 31.3137, "lng": 120.675502, "capacity": 20, "availBike": 10,"address": "星汉街东侧（苏惠路南）"} ,{"id": 555, "name": "文化艺术中心", "lat": 31.324387, "lng": 120.702496, "capacity": 30, "availBike": 7,"address": "观枫街西侧（翠园路比）"} ,{"id": 556, "name": "中塘公园西", "lat": 31.308888, "lng": 120.724897, "capacity": 20, "availBike": 9,"address": "星湖街东侧（苏胜路北）"} ,{"id": 557, "name": "人力资源市场南", "lat": 31.320189, "lng": 120.724854, "capacity": 30, "availBike": 1,"address": "旺墩路北侧"} ,{"id": 558, "name": "园区行政中心东", "lat": 31.32326, "lng": 120.721432, "capacity": 40, "availBike": 0,"address": "万盛街西侧（翠园路南）"} ,{"id": 559, "name": "德邑西门北", "lat": 31.30424, "lng": 120.727837, "capacity": 20, "availBike": 20,"address": "长乐街东侧（琼姬路南）"} ,{"id": 560, "name": "伊顿小镇东门北", "lat": 31.306715, "lng": 120.732429, "capacity": 20, "availBike": 8,"address": "南施街西侧（琼姬路北）"} ,{"id": 561, "name": "东湖大郡二期东门", "lat": 31.311628, "lng": 120.733008, "capacity": 18, "availBike": 10,"address": "南施街西侧（方洲路南）"} ,{"id": 562, "name": "欧典花园北门西", "lat": 31.312802, "lng": 120.736914, "capacity": 20, "availBike": 7,"address": "方洲支路南侧"} ,{"id": 563, "name": "方洲邻里中心南", "lat": 31.314415, "lng": 120.742579, "capacity": 30, "availBike": 8,"address": "方洲路北侧（津梁街东）"} ,{"id": 564, "name": "方洲公园北", "lat": 31.317201, "lng": 120.745625, "capacity": 18, "availBike": 18,"address": "兆佳巷南侧（星塘街东）"} ,{"id": 565, "name": "欧尚超市西", "lat": 31.304258, "lng": 120.657756, "capacity": 30, "availBike": 26,"address": "S227省道东侧（金鸡湖路南）"} ,{"id": 566, "name": "现代休闲广场北", "lat": 31.319538, "lng": 120.709244, "capacity": 20, "availBike": 0,"address": "旺墩路北侧（华池街西）"} ,{"id": 567, "name": "中海国际社区七区", "lat": 31.320666, "lng": 120.74451, "capacity": 20, "availBike": 20,"address": "钟园路北侧（星塘街东）"} ,{"id": 568, "name": "水墨江南东门", "lat": 31.29069, "lng": 120.72331, "capacity": 18, "availBike": 9,"address": "东华林街西侧（东延路北第二个门口）"} ,{"id": 569, "name": "东港新村南门", "lat": 31.319786, "lng": 120.657563, "capacity": 40, "availBike": 40,"address": "现代大道北侧"} ,{"id": 570, "name": "大湖城邦西门", "lat": 31.293037, "lng": 120.681869, "capacity": 20, "availBike": 10,"address": "星州街东侧（高和路北）"} ,{"id": 571, "name": "国际科技园东", "lat": 31.296008, "lng": 120.672712, "capacity": 20, "availBike": 13,"address": "金鸡湖大道南侧（星海街东）"} ,{"id": 572, "name": "圆融时代广场", "lat": 31.319199, "lng": 120.712731, "capacity": 14, "availBike": 0,"address": "华池街东侧（圆融桥北）"} ,{"id": 573, "name": "湖东邻里中心西南", "lat": 31.313205, "lng": 120.728223, "capacity": 20, "availBike": 1,"address": "新洲幼儿园东北"} ,{"id": 574, "name": "园区城铁站", "lat": 31.341982, "lng": 120.710928, "capacity": 30, "availBike": 11,"address": "至和西路（城铁站北面）"} ,{"id": 575, "name": "第五元素小区东门", "lat": 31.311088, "lng": 120.740551, "capacity": 14, "availBike": 14,"address": "津梁街"} ,{"id": 576, "name": "东湖林语小区西门", "lat": 31.31062, "lng": 120.740916, "capacity": 14, "availBike": 13,"address": "津梁街"} ,{"id": 577, "name": "亿城新天地南门", "lat": 31.335393, "lng": 120.745883, "capacity": 22, "availBike": 20,"address": "沈浒路"} ,{"id": 578, "name": "金鸡湖大酒店", "lat": 31.285006, "lng": 120.707002, "capacity": 20, "availBike": 5,"address": "国宾路南端"} ,{"id": 579, "name": "香樟公寓小区北门", "lat": 31.322371, "lng": 120.660481, "capacity": 20, "availBike": 6,"address": "苏幕路与星明街口（苏幕路南）"} ,{"id": 580, "name": "荣域小区东门", "lat": 31.283209, "lng": 120.724618, "capacity": 18, "availBike": 11,"address": "星湖街靠近独墅湖大道"} ,{"id": 581, "name": "朗诗国际小区西门", "lat": 31.305106, "lng": 120.740878, "capacity": 20, "availBike": 8,"address": "津梁街西"} ,{"id": 582, "name": "凤凰城小区西门", "lat": 31.308017, "lng": 120.766568, "capacity": 28, "availBike": 20,"address": "榭雨街靠近苏胜路"} ,{"id": 583, "name": "湖西社工委东门", "lat": 0, "lng": 0, "capacity": 20, "availBike": 16,"address": ""} ,{"id": 1001, "name": "TaiPei1", "lat": 0, "lng": 0, "capacity": 10, "availBike": 0,"address": ""} ,{"id": 1003, "name": "重庆演示站", "lat": 31.325, "lng": 120.43, "capacity": 2, "availBike": 0,"address": ""} ,{"id": 1004, "name": "TaiPei-1", "lat": 0, "lng": 0, "capacity": 20, "availBike": 3,"address": ""} ,{"id": 1005, "name": "TaiPei-2", "lat": 0, "lng": 0, "capacity": 20, "availBike": 0,"address": ""} ,{"id": 1007, "name": "遂宁演示车站", "lat": 0, "lng": 0, "capacity": 10, "availBike": 0,"address": ""} ,{"id": 1008, "name": "南川演示站", "lat": 31.297, "lng": 120.623, "capacity": 2, "availBike": 0,"address": "重庆市南川区"} ,{"id": 1009, "name": "苏州培训演示", "lat": 0, "lng": 0, "capacity": 2, "availBike": 0,"address": "苏州金门路1172号"} ,{"id": 1010, "name": "黑河演示站", "lat": 50.246223, "lng": 127.523991, "capacity": 2, "availBike": 1,"address": "黑河市财政局"} ,{"id": 1011, "name": "测试车站", "lat": 0, "lng": 0, "capacity": 20, "availBike": 0,"address": ""} ,{"id": 1012, "name": "顺德演示站", "lat": 22.832516, "lng": 113.262177, "capacity": 2, "availBike": 0,"address": "广东省佛山市顺德区"} ,{"id": 1013, "name": "重庆演示站", "lat": 0, "lng": 0, "capacity": 10, "availBike": 0,"address": ""} ,{"id": 3001, "name": "温岭测试1", "lat": 0, "lng": 0, "capacity": 20, "availBike": 0,"address": ""} ,{"id": 3002, "name": "温岭测试2", "lat": 0, "lng": 0, "capacity": 20, "availBike": 0,"address": ""} ] }